[{"name":"가재울정내과의원","city":"서울특별시","district":"서대문구","address":"가재울미래로 2, 별동상가동 3층 304-1,2/305-1,2호 (남가좌동, DMC파크뷰자이)","tel":"02-304-1789","category":"의원","hpid":"A1120526","latitude":37.5743677165,"longitude":126.9178561185,"monStart":"0900","monClose":"1900","tueStart":"0900","tueClose":"1900","wedStart":"0900","wedClose":"1900","thuStart":"0900","thuClose":"1900","friStart":"0900","friClose":"1900","satStart":"0900","satClose":"1400"},{"name":"강남성모안과의원","city":"서울특별시","district":"서대문구","address":"통일로 450  (홍제동)","tel":"02-394-1001","category":"의원","remarks":"일반진료/수술가능(백내장)/","hpid":"A1101728","latitude":37.58894326304352,"longitude":126.94439827500017,"monStart":"0900","monClose":"1800","tueStart":"0900","tueClose":"1800","wedStart":"0900","wedClose":"1800","thuStart":"0900","thuClose":"1800","friStart":"0900","friClose":"1800","satStart":"0900","satClose":"1400"},{"name":"강한내과의원","city":"서울특별시","district":"서대문구","address":"연희로 122, 2층 (연희동)","tel":"02-3143-5777","category":"의원","remarks":"2013.10 개업","hpid":"A1105892","latitude":37.568498906597526,"longitude":126.93250069278437,"monStart":"0800","monClose":"1900","tueStart":"0800","tueClose":"1900","wedStart":"0800","wedClose":"1900","thuStart":"0800","thuClose":"1900","friStart":"0800","friClose":"1900","satStart":"0800","satClose":"1600"},{"name":"고려안과의원","city":"서울특별시","district":"서대문구","address":"영천시장길 70, 3층 (옥천동)","tel":"02-362-7585","category":"의원","remarks":"일반진료/수술가능(백내장)/","hpid":"A1100365","latitude":37.56953220586091,"longitude":126.96260048276395,"monStart":"0900","monClose":"1830","tueStart":"0900","tueClose":"1830","wedStart":"0900","wedClose":"1830","thuStart":"0900","thuClose":"1830","friStart":"0900","friClose":"1830","satStart":"0900","satClose":"1430"},{"name":"고려정형외과의원","city":"서울특별시","district":"서대문구","address":"통일로 415, 4,5층 (홍제동)","tel":"02-391-1513","category":"의원","hpid":"A1117921","latitude":37.5865078562,"longitude":126.9463063748,"monStart":"0900","monClose":"1900","tueStart":"0900","tueClose":"1900","wedStart":"0900","wedClose":"1900","thuStart":"0900","thuClose":"1900","friStart":"0900","friClose":"1900","satStart":"0900","satClose":"1400"},{"name":"고운누리피부과의원","city":"서울특별시","district":"서대문구","address":"응암로 54, 301,305호 (북가좌동, 서부프라자)","tel":"02-303-0297","category":"의원","remarks":"일반진료/피부미용/","hpid":"A1105303","latitude":37.57789043713552,"longitude":126.91020396455657,"monStart":"0900","monClose":"1800","tueStart":"0900","tueClose":"1800","wedStart":"0900","wedClose":"1800","thuStart":"0900","thuClose":"1800","friStart":"0900","friClose":"1800","satStart":"0900","satClose":"1400"},{"name":"국민의원","city":"서울특별시","district":"서대문구","address":"신촌로 277 (북아현동) ","tel":"02-312-5113","category":"의원","remarks":"일반진료X, 보건증, 운전면허 적성검사 등만 시행","hpid":"A1106679","latitude":37.557579470911435,"longitude":126.95696573693536,"monStart":"0900","monClose":"1900","tueStart":"0900","tueClose":"1900","wedStart":"0900","wedClose":"1900","thuStart":"0900","thuClose":"1900","friStart":"0900","friClose":"1900"},{"name":"권기철정신건강의학과의원","city":"서울특별시","district":"서대문구","address":"통일로 476, 204호 (홍제동, 원일상가)","tel":"02-394-6621","category":"의원","remarks":"상담위주","hpid":"A1106686","latitude":37.59074068541236,"longitude":126.94241286239497,"monStart":"0900","monClose":"1800","tueStart":"0900","tueClose":"1800","wedStart":"0900","wedClose":"1800","thuStart":"0900","thuClose":"1800","friStart":"0900","friClose":"1800","satStart":"0900","satClose":"1500"},{"name":"그대안에산부인과의원(신촌점)","city":"서울특별시","district":"서대문구","address":"신촌로 107, 5층 (창천동)","tel":"02-363-2400","category":"의원","hpid":"A1119957","latitude":37.5556536455,"longitude":126.9378721848,"monStart":"1000","monClose":"2000","tueStart":"1000","tueClose":"2000","wedStart":"1000","wedClose":"2000","thuStart":"1000","thuClose":"2000","friStart":"1000","friClose":"2000","satStart":"1000","satClose":"1600"},{"name":"김문성이비인후과의원","city":"서울특별시","district":"서대문구","address":"증가로 122","tel":"02-305-4749","category":"의원","remarks":"수액처치/이물제거/후두내시경/","hpid":"A1100523","latitude":37.57736675837146,"longitude":126.92427916567982,"monStart":"0930","monClose":"1800","tueStart":"0930","tueClose":"1800","wedStart":"0930","wedClose":"1800","thuStart":"0930","thuClose":"1800","friStart":"0930","friClose":"1800","satStart":"0930","satClose":"1300"},{"name":"김비뇨기과의원","city":"서울특별시","district":"서대문구","address":"통일로 435-2 (홍제동)","tel":"02-379-9814","category":"의원","hpid":"A1105507","latitude":37.5878082240572,"longitude":126.94486980237885,"monStart":"0930","monClose":"1830","tueStart":"0930","tueClose":"1830","wedStart":"0930","wedClose":"1830","thuStart":"0930","thuClose":"1830","friStart":"0930","friClose":"1830","satStart":"0930","satClose":"1400"},{"name":"김소영피부과의원","city":"서울특별시","district":"서대문구","address":"통일로 448, 3층 (홍제동)","tel":"02-396-0522","category":"의원","remarks":"2014.05 개업","hpid":"A1116402","latitude":37.58886760101128,"longitude":126.9444568651997,"monStart":"0930","monClose":"2000","tueStart":"0930","tueClose":"1900","wedStart":"0930","wedClose":"2000","friStart":"0930","friClose":"1900","satStart":"0930","satClose":"1500"},{"name":"김시원이비인후과의원","city":"서울특별시","district":"서대문구","address":"수색로 30 (남가좌동)","tel":"02-304-8815","category":"의원","remarks":"소아진료가능(신생아부터)/이물제거/후두내시경/수액/점심시간없이 진료 함","hpid":"A1105562","latitude":37.5693743805702,"longitude":126.91528079098012,"monStart":"0900","monClose":"1830","tueStart":"0900","tueClose":"1830","wedStart":"0900","wedClose":"1830","thuStart":"0900","thuClose":"1830","friStart":"0900","friClose":"1830","satStart":"0900","satClose":"1600"},{"name":"김안과의원","city":"서울특별시","district":"서대문구","address":"통일로 107","tel":"02-313-2509","category":"의원","remarks":"일반진료/","hpid":"A1102693","latitude":37.564492171883856,"longitude":126.96745258621571,"monStart":"0930","monClose":"1800","tueStart":"0930","tueClose":"1800","wedStart":"0930","wedClose":"1800","thuStart":"0930","thuClose":"1800","friStart":"0930","friClose":"1800","satStart":"0930","satClose":"1600"},{"name":"김연심소아과의원","city":"서울특별시","district":"서대문구","address":"통일로 356 (홍제동)","tel":"02-722-2388","category":"의원","remarks":"상처소독/소아안질환/","hpid":"A1106188","latitude":37.58218860324914,"longitude":126.95068405878169,"monStart":"0900","monClose":"1900","tueStart":"0900","tueClose":"1900","wedStart":"0900","wedClose":"1900","thuStart":"0900","thuClose":"1900","friStart":"0900","friClose":"1900","satStart":"0900","satClose":"1300"},{"name":"김영환피부과의원","city":"서울특별시","district":"서대문구","address":"연희로 407","tel":"02-3216-2787","category":"의원","remarks":"일반진료/피부미용/화상/","hpid":"A1101436","latitude":37.591417347915105,"longitude":126.94075047909209,"monStart":"0930","monClose":"1900","tueStart":"0930","tueClose":"1900","wedStart":"1400","wedClose":"2000","thuStart":"0930","thuClose":"1900","friStart":"0930","friClose":"1900","satStart":"0930","satClose":"1400"},{"name":"김유성이비인후과의원","city":"서울특별시","district":"서대문구","address":"통일로 199 (영천동)","tel":"02-363-7750","category":"의원","remarks":"신생아가능/이물제거/후두내시경/수액처치 가능","hpid":"A1103185","latitude":37.57096613162908,"longitude":126.96119161786552,"monStart":"1000","monClose":"1800","tueStart":"1000","tueClose":"1800","wedStart":"1000","wedClose":"1800","thuStart":"1000","thuClose":"1800","friStart":"1000","friClose":"1800","satStart":"1000","satClose":"1400"},{"name":"김은아소아청소년과의원","city":"서울특별시","district":"서대문구","address":"통일로 455","tel":"02-391-0553","category":"의원","hpid":"A1116398","latitude":37.58899689147083,"longitude":126.94351509303672,"monStart":"0900","monClose":"1830","tueStart":"0900","tueClose":"1830","wedStart":"0900","wedClose":"1830","thuStart":"0900","thuClose":"1830","friStart":"0900","friClose":"1830","satStart":"0900","satClose":"1300"},{"name":"김의원","city":"서울특별시","district":"서대문구","address":"연희로 124 (연희동)","tel":"02-337-3119","category":"의원","remarks":"항문/갑상선/유방/봉합/화상/X-ray/물리치료/","hpid":"A1101892","latitude":37.568585488425164,"longitude":126.93265910582215,"monStart":"0900","monClose":"1800","tueStart":"0900","tueClose":"1800","wedStart":"0900","wedClose":"1800","thuStart":"0900","thuClose":"1800","friStart":"0900","friClose":"1800","satStart":"0900","satClose":"1300"},{"name":"김이비인후과의원","city":"서울특별시","district":"서대문구","address":"응암로 54, 3층 (북가좌동, 서부프라자)","tel":"02-306-1851","category":"의원","remarks":"신생아가능/이물제거/후두내시경 가능","hpid":"A1105198","latitude":37.57789043713553,"longitude":126.91020396455657,"monStart":"0900","monClose":"1800","tueStart":"0900","tueClose":"1800","wedStart":"0900","wedClose":"1800","thuStart":"0900","thuClose":"1800","friStart":"0900","friClose":"1800","satStart":"0900","satClose":"1500"},{"name":"김이비인후과의원","city":"서울특별시","district":"서대문구","address":"통일로 452, 2층 (홍제동)","tel":"02-394-3075","category":"의원","remarks":"신생아부터가능/이물제거/후두내시경/수액처치 가능","hpid":"A1101484","latitude":37.58915211770779,"longitude":126.94403998813115,"monStart":"0900","monClose":"1830","tueStart":"0900","tueClose":"1830","wedStart":"0900","wedClose":"1830","thuStart":"0900","thuClose":"1830","friStart":"0900","friClose":"1830","satStart":"0900","satClose":"1300"},{"name":"김인주연세가정의학과의원","city":"서울특별시","district":"서대문구","address":"홍은중앙로 89 (홍은동)","tel":"02-379-0900","category":"의원","remarks":"수액처치/상처소독/x-ray/이물제거/소아","hpid":"A1101054","latitude":37.59904648975132,"longitude":126.94734834023964,"monStart":"0900","monClose":"1830","tueStart":"0900","tueClose":"1830","wedStart":"0900","wedClose":"1830","thuStart":"0900","thuClose":"1830","friStart":"0900","friClose":"1830","satStart":"0900","satClose":"1230"},{"name":"김주예소아청소년과의원","city":"서울특별시","district":"서대문구","address":"증가로 129, 2층 (남가좌동)","tel":"02-308-8275","category":"의원","remarks":"진료시간확인-14.10.08","hpid":"A1116399","latitude":37.577268935739944,"longitude":126.92323702550367,"monStart":"0900","monClose":"1830","tueStart":"0900","tueClose":"1830","wedStart":"0900","wedClose":"1830","thuStart":"0900","thuClose":"1830","friStart":"0900","friClose":"1830","satStart":"0900","satClose":"1300"},{"name":"김창수의원","city":"서울특별시","district":"서대문구","address":"신촌로 67, 4층 (창천동, 거촌빌딩)","tel":"02-702-7531","category":"의원","remarks":"거화빌딩 4층/하지정맥류/","hpid":"A1101273","latitude":37.5565021094,"longitude":126.9340416405,"monStart":"0930","monClose":"1800","tueStart":"0930","tueClose":"1800","wedStart":"0930","wedClose":"1800","thuStart":"0930","thuClose":"1800","friStart":"0930","friClose":"1800","satStart":"0900","satClose":"1600"},{"name":"나남여성의원","city":"서울특별시","district":"서대문구","address":"통일로 173-8, 2층 (천연동)","tel":"02-363-5675","category":"의원","hpid":"A1119150","latitude":37.56915383929999,"longitude":126.9627636714,"monStart":"0900","monClose":"1900","tueStart":"0900","tueClose":"1900","wedStart":"0900","wedClose":"1900","thuStart":"0900","thuClose":"1900","friStart":"0900","friClose":"1900","satStart":"0900","satClose":"1600"},{"name":"나재활의학과의원","city":"서울특별시","district":"서대문구","address":"통일로 173-8 (천연동)","tel":"02-392-7008","category":"의원","remarks":"물리치료ㅇ/ 소득가능","hpid":"A1104319","latitude":37.5691754605261,"longitude":126.96276820911095,"monStart":"0900","monClose":"1900","tueStart":"0900","tueClose":"1900","wedStart":"0900","wedClose":"1900","thuStart":"0900","thuClose":"1900","friStart":"0900","friClose":"1900","satStart":"0900","satClose":"1400"},{"name":"남기헌정형외과의원","city":"서울특별시","district":"서대문구","address":"세검정로1길 5, 1,2,3,4,5층 (홍은동)","tel":"02-396-5595","category":"의원","hpid":"A1102111","latitude":37.59211006875232,"longitude":126.94215817464787,"monStart":"0900","monClose":"1900","tueStart":"0900","tueClose":"1900","wedStart":"0900","wedClose":"1900","thuStart":"0900","thuClose":"1900","friStart":"0900","friClose":"1900","satStart":"0900","satClose":"1400"},{"name":"누리사랑의원","city":"서울특별시","district":"서대문구","address":"증가로 241, 4층 (북가좌동, 백동빌딩)","tel":"02-304-9988","category":"의원","remarks":"소아(3세이상)/수액처치/이물제거/봉합/","hpid":"A1105899","latitude":37.58258471941214,"longitude":126.91274791468079,"monStart":"0900","monClose":"2000","tueStart":"0900","tueClose":"1900","wedStart":"0900","wedClose":"1900","thuStart":"0900","thuClose":"1900","friStart":"0900","friClose":"2000","satStart":"0900","satClose":"1500"},{"name":"늘편한마취통증의학과의원","city":"서울특별시","district":"서대문구","address":"연희로 103","tel":"02-2038-3214","category":"의원","remarks":"2013.09 개업","hpid":"A1105992","latitude":37.567103260978605,"longitude":126.93091817320902,"monStart":"0900","monClose":"1900","tueStart":"0900","tueClose":"1900","wedStart":"0900","wedClose":"1900","thuStart":"0900","thuClose":"1900","friStart":"0900","friClose":"1900","satStart":"0900","satClose":"1400"},{"name":"더나음신경외과의원","city":"서울특별시","district":"서대문구","address":"충정로 13, 삼창빌딩 3층 (충정로3가)","tel":"02-2088-7060","category":"의원","hpid":"A1120392","latitude":37.5605691035,"longitude":126.9626230724,"monStart":"1000","monClose":"1930","tueStart":"1000","tueClose":"1930","wedStart":"1000","wedClose":"1930","thuStart":"1000","thuClose":"1930","friStart":"1000","friClose":"1930","satStart":"1000","satClose":"1500"},{"name":"독립문연세내과의원","city":"서울특별시","district":"서대문구","address":"통일로 189-1, 2층 (영천동)","tel":"02-737-1789","category":"의원","hpid":"A1116400","latitude":37.570335653108096,"longitude":126.96184846040393,"monStart":"0900","monClose":"1830","tueStart":"0900","tueClose":"1830","wedStart":"0900","wedClose":"1830","thuStart":"0900","thuClose":"1830","friStart":"0900","friClose":"1830","satStart":"0900","satClose":"1600"},{"name":"독일하트의원","city":"서울특별시","district":"서대문구","address":"신촌로 13, 3층 (창천동, 아륭빌딩)","tel":"02-334-1008","category":"의원","hpid":"A1102751","latitude":37.55840541474453,"longitude":126.92853499410305,"monStart":"0900","monClose":"1800","tueStart":"0900","tueClose":"1800","wedStart":"0900","wedClose":"1800","thuStart":"0900","thuClose":"1800","friStart":"0900","friClose":"1800","satStart":"0900","satClose":"1300"},{"name":"동민외과의원","city":"서울특별시","district":"서대문구","address":"통일로 467 (홍제동)","tel":"02-395-2008","category":"의원","remarks":"항문/봉합/화상/3세이상","hpid":"A1102994","latitude":37.58987936044377,"longitude":126.94246789497392,"monStart":"0900","monClose":"1800","tueStart":"0900","tueClose":"1800","wedStart":"0900","wedClose":"1800","thuStart":"0900","thuClose":"1800","friStart":"0900","friClose":"1800","satStart":"0900","satClose":"1200"},{"name":"동신의원","city":"서울특별시","district":"서대문구","address":"연희로 276, 2층 (홍은동)","tel":"02-394-0708","category":"의원","hpid":"A1100830","latitude":37.581695288457766,"longitude":126.93656500389324,"monStart":"0900","monClose":"1800","tueStart":"0900","tueClose":"1800","wedStart":"0900","wedClose":"1800","thuStart":"0900","thuClose":"1800","friStart":"0900","friClose":"1800","satStart":"0900","satClose":"1500"},{"name":"두드림신경과의원","city":"서울특별시","district":"서대문구","address":"통일로 448, 7층 (홍제동)","tel":"02-379-0050","category":"의원","hpid":"A1116406","latitude":37.58886760101127,"longitude":126.9444568651997,"monStart":"0900","monClose":"1900","tueStart":"0900","tueClose":"1900","wedStart":"0900","wedClose":"1900","thuStart":"0900","thuClose":"1900","friStart":"0900","friClose":"1900","satStart":"0900","satClose":"1400"},{"name":"디엠씨(DMC)최한규피부과의원","city":"서울특별시","district":"서대문구","address":"수색로 56","tel":"02-306-9888","category":"의원","hpid":"A1118123","latitude":37.57065159398661,"longitude":126.91260433410443,"monStart":"0900","monClose":"1900","tueStart":"0900","tueClose":"1900","wedStart":"0900","wedClose":"1900","thuStart":"0900","thuClose":"2000","friStart":"0900","friClose":"1900","satStart":"0900","satClose":"1330"},{"name":"라인앤뷰의원","city":"서울특별시","district":"서대문구","address":"신촌로 61, 2,3층 (창천동)","tel":"02-1600-9833","category":"의원","hpid":"A1119877","latitude":37.5566495426,"longitude":126.9334529998,"monStart":"1030","monClose":"1930","tueStart":"1030","tueClose":"2100","wedStart":"1030","wedClose":"1930","thuStart":"1030","thuClose":"1930","friStart":"1030","friClose":"2100","satStart":"1030","satClose":"1700"},{"name":"로앤산부인과의원","city":"서울특별시","district":"서대문구","address":"연세로 12  (창천동)","tel":"02-326-5000","category":"의원","hpid":"A1106337","latitude":37.5566335758,"longitude":126.9372013744,"monStart":"1000","monClose":"2100","tueStart":"1000","tueClose":"2100","wedStart":"1000","wedClose":"2100","thuStart":"1000","thuClose":"2100","friStart":"1000","friClose":"2100","satStart":"1000","satClose":"1800","holStart":"0900","holClose":"1300"},{"name":"리뉴미피부과의원","city":"서울특별시","district":"서대문구","address":"통일로 433, 7층,8층 (홍제동, 조이빌딩)","tel":"02-394-8275","category":"의원","remarks":"일반진료O/피부미용진료O/상처봉합,화상치료 O","hpid":"A1102180","latitude":37.58759209058577,"longitude":126.94508732730455,"monStart":"1000","monClose":"2000","tueStart":"1000","tueClose":"2000","wedStart":"1000","wedClose":"2000","thuStart":"1000","thuClose":"2000","friStart":"1000","friClose":"2000","satStart":"0930","satClose":"1600"},{"name":"마리아마취통증의학과의원","city":"서울특별시","district":"서대문구","address":"통일로 464, 3층 (홍제동)","tel":"02-395-0223","category":"의원","remarks":"진료 마감 한시간전까지만 접수 받음","hpid":"A1101402","latitude":37.59005266910223,"longitude":126.94315648337144,"monStart":"0930","monClose":"1800","tueStart":"0930","tueClose":"1800","wedStart":"0930","wedClose":"1800","thuStart":"0930","thuClose":"1800","friStart":"0930","friClose":"1800","satStart":"0930","satClose":"1400"},{"name":"메이저피부과의원(신촌점)","city":"서울특별시","district":"서대문구","address":"연세로 8-1, 4층 (창천동)","tel":"02-392-7582","category":"의원","hpid":"A1107071","latitude":37.55634170573935,"longitude":126.93730121307375,"monStart":"1000","monClose":"2000","tueStart":"1000","tueClose":"1900","wedStart":"1400","wedClose":"2000","thuStart":"1000","thuClose":"1900","friStart":"1400","friClose":"2000","satStart":"1000","satClose":"1600"},{"name":"몸편한재활의학과의원","city":"서울특별시","district":"서대문구","address":"수색로 40, 2층 (남가좌동)","tel":"02-2038-3308","category":"의원","hpid":"A1118798","latitude":37.5700044045658,"longitude":126.91434279921543,"monStart":"0930","monClose":"1830","tueStart":"0930","tueClose":"2030","wedStart":"0930","wedClose":"1830","thuStart":"0930","thuClose":"2030","friStart":"0930","friClose":"1830","satStart":"0930","satClose":"1400"},{"name":"문영환산부인과의원","city":"서울특별시","district":"서대문구","address":"모래내로 239 (남가좌동)","tel":"02-373-1133","category":"의원","remarks":"수액/ 유방초음파","hpid":"A1103144","latitude":37.575374488357284,"longitude":126.92518156265987,"monStart":"0900","monClose":"1800","tueStart":"0900","tueClose":"1800","wedStart":"0900","wedClose":"1800","thuStart":"0900","thuClose":"1800","friStart":"0900","friClose":"1800","satStart":"0900","satClose":"1500"},{"name":"미래아이내과의원","city":"서울특별시","district":"서대문구","address":"수색로 100, 상가동 1층 105,106호 (북가좌동, DMC래미안이편한세상)","tel":"02-309-7582","category":"의원","remarks":"수액처치/소아진료(신상아부터)/혈액검사/내시경(위)/초음파검사/X-ray/","hpid":"A1100887","latitude":37.57383602121654,"longitude":126.91068067261526,"monStart":"0900","monClose":"1900","tueStart":"0900","tueClose":"1900","wedStart":"0900","wedClose":"1900","thuStart":"0900","thuClose":"1900","friStart":"0900","friClose":"1900","satStart":"0900","satClose":"1400"},{"name":"미즈미산부인과의원","city":"서울특별시","district":"서대문구","address":"통일로 131, 8층 (충정로2가, 공화당빌딩)","tel":"02-363-7677","category":"의원","hpid":"A1119313","latitude":37.5661526581,"longitude":126.9658620314,"monStart":"0930","monClose":"1900","tueStart":"0930","tueClose":"1900","wedStart":"0930","wedClose":"1900","thuStart":"0930","thuClose":"1900","friStart":"0930","friClose":"1900","satStart":"0930","satClose":"1600","holStart":"0930","holClose":"1300"},{"name":"미즈앤미여성의원","city":"서울특별시","district":"서대문구","address":"응암로 55 (북가좌동)","tel":"02-372-3766","category":"의원","remarks":"외래진료만가능, 분만불가","hpid":"A1105463","latitude":37.578398300344524,"longitude":126.90981391896554,"monStart":"0930","monClose":"1800","tueStart":"0930","tueClose":"1800","wedStart":"0930","wedClose":"1800","thuStart":"0930","thuClose":"1800","friStart":"0930","friClose":"1800","satStart":"0930","satClose":"1300"},{"name":"민내과의원","city":"서울특별시","district":"서대문구","address":"영천시장길 10 (영천동)","tel":"02-363-7273","category":"의원","remarks":"수액처치/X-ray/혈액검사/심전도/","hpid":"A1105688","latitude":37.57129015055599,"longitude":126.96017267385577,"monStart":"0900","monClose":"1800","tueStart":"0900","tueClose":"1800","wedStart":"0900","wedClose":"1800","thuStart":"0900","thuClose":"1800","friStart":"0900","friClose":"1800","satStart":"0900","satClose":"1300"},{"name":"박비뇨기과의원","city":"서울특별시","district":"서대문구","address":"통일로 139 (냉천동) ","tel":"02-363-2875","category":"의원","hpid":"A1106404","latitude":37.566776004830146,"longitude":126.9653727640024,"monStart":"1000","monClose":"1730","tueStart":"1000","tueClose":"1730","wedStart":"1000","wedClose":"1730","thuStart":"1000","thuClose":"1730","friStart":"1000","friClose":"1730","satStart":"1100","satClose":"1300"},{"name":"박성규내과의원","city":"서울특별시","district":"서대문구","address":"영천시장길 70 (옥천동)","tel":"02-392-4027","category":"의원","hpid":"A1102577","latitude":37.56953581145539,"longitude":126.96261861278168,"monStart":"0900","monClose":"1900","tueStart":"0900","tueClose":"1900","wedStart":"0900","wedClose":"1900","thuStart":"0900","thuClose":"1900","friStart":"0900","friClose":"1900","satStart":"0900","satClose":"1400"},{"name":"박성균소아과의원","city":"서울특별시","district":"서대문구","address":"세검정로 56 (홍제동)","tel":"02-379-8275","category":"의원","remarks":"수액처치/성처소독/성인진료/소아안질환(간단한)/","hpid":"A1106171","latitude":37.592624277575204,"longitude":126.94738445591697,"monStart":"0900","monClose":"1830","tueStart":"0900","tueClose":"1830","wedStart":"0900","wedClose":"1830","thuStart":"0900","thuClose":"1300","friStart":"0900","friClose":"1830","satStart":"0900","satClose":"1500"},{"name":"박휘규비뇨기과의원","city":"서울특별시","district":"서대문구","address":"신촌로 93","tel":"02-324-6817","category":"의원","remarks":"피부과(간단한 화상치료)","hpid":"A1100624","latitude":37.55568557751359,"longitude":126.93659211157285,"monStart":"0930","monClose":"1800","tueStart":"0930","tueClose":"1800","wedStart":"0930","wedClose":"1800","thuStart":"0930","thuClose":"1800","friStart":"0930","friClose":"1800","satStart":"0930","satClose":"1400"},{"name":"백설공주의원","city":"서울특별시","district":"서대문구","address":"신촌로 183, 501호 (대현동, 유인빌딩)","tel":"02-365-9788","category":"의원","hpid":"A1116627","latitude":37.55707055370652,"longitude":126.9463229770651,"monStart":"1030","monClose":"2100","tueStart":"1030","tueClose":"2100","thuStart":"1030","thuClose":"2100","friStart":"1030","friClose":"2100","satStart":"1030","satClose":"1400"},{"name":"베스트의원","city":"서울특별시","district":"서대문구","address":"홍은중앙로 100-1 (홍은동)","tel":"02-379-3375","category":"의원","remarks":"가정의학과(3세부터),  피부과(화상치료 가능), 수액, 이물질제거, 간단한 봉합소독,","hpid":"A1102471","latitude":37.59940749209556,"longitude":126.94864345755443,"monStart":"0900","monClose":"1830","tueStart":"0900","tueClose":"1830","wedStart":"0900","wedClose":"1830","thuStart":"0900","thuClose":"1830","friStart":"0900","friClose":"1830","satStart":"0900","satClose":"1300"},{"name":"베스트힐링의원","city":"서울특별시","district":"서대문구","address":"통일로 87, 신관동 B1층 101-A호 (미근동)","tel":"02-313-2223","category":"의원","hpid":"A1117333","latitude":37.56277646080805,"longitude":126.9685120878853,"monStart":"0930","monClose":"1900","tueStart":"0930","tueClose":"1900","wedStart":"0930","wedClose":"1900","thuStart":"0930","thuClose":"1900","friStart":"0930","friClose":"1900","satStart":"0930","satClose":"1330"},{"name":"변우현이비인후과의원","city":"서울특별시","district":"서대문구","address":"통일로37길 4, 2층 (홍제동)","tel":"02-395-4375","category":"의원","remarks":"소아과전문의(신생아부터)/ 이비인후과 전문의/ 이물제거/ 후두내시경/ 수액처치(소아,성인)","hpid":"A1105524","latitude":37.588146803,"longitude":126.944448343,"monStart":"0830","monClose":"1800","tueStart":"0830","tueClose":"1800","wedStart":"0830","wedClose":"1800","thuStart":"0830","thuClose":"1800","friStart":"0830","friClose":"1800","satStart":"0830","satClose":"1300"},{"name":"봄눈첫잎술의원","city":"서울특별시","district":"서대문구","address":"연세로 21, 7층 (창천동)","tel":"02-6925-1215","category":"의원","hpid":"A1118553","latitude":37.55757393847914,"longitude":126.93667997308316,"monStart":"1030","monClose":"2000","tueStart":"1030","tueClose":"2000","wedStart":"1130","wedClose":"1930","thuStart":"1130","thuClose":"1930","friStart":"1130","friClose":"2030","satStart":"1000","satClose":"1530"},{"name":"봄산부인과의원","city":"서울특별시","district":"서대문구","address":"통일로39가길 30, 2층 (홍제동, 해명빌딩)","tel":"02-394-7575","category":"의원","remarks":"응급분만/야간분만/수액/유방초음파/여의사","hpid":"A1102836","latitude":37.58931372447173,"longitude":126.9428532940107,"monStart":"0900","monClose":"2000","tueStart":"0900","tueClose":"1800","wedStart":"0900","wedClose":"1800","thuStart":"0900","thuClose":"1800","friStart":"0900","friClose":"2000","satStart":"0900","satClose":"1500"},{"name":"블루비뇨기과의원","city":"서울특별시","district":"서대문구","address":"신촌로 99, 15층 (창천동)","tel":"02-365-5671","category":"의원","hpid":"A1103453","latitude":37.55568930688561,"longitude":126.9371568973312,"monStart":"0900","monClose":"2100","tueStart":"0900","tueClose":"2100","wedStart":"0900","wedClose":"1900","thuStart":"0900","thuClose":"2100","friStart":"0900","friClose":"2100","satStart":"0900","satClose":"1600","sunStart":"0930","sunClose":"1600","holStart":"0930","holClose":"1600"},{"name":"비움내과의원","city":"서울특별시","district":"서대문구","address":"모래내로 277 (홍은동)","tel":"02-373-1119","category":"의원","hpid":"A1116775","latitude":37.5774310229,"longitude":126.9288428499,"monStart":"0900","monClose":"2100","tueStart":"0900","tueClose":"2100","wedStart":"0900","wedClose":"2100","thuStart":"0900","thuClose":"2100","friStart":"0900","friClose":"2100","satStart":"0900","satClose":"1800","sunStart":"0900","sunClose":"1800","holStart":"0900","holClose":"1800"},{"name":"빛사랑안과의원","city":"서울특별시","district":"서대문구","address":"신촌로 91","tel":"02-323-5300","category":"의원","remarks":"일반진료/수술가능(시력교정,백내장)/","hpid":"A1100807","latitude":37.55558455697478,"longitude":126.9363930153821,"monStart":"0930","monClose":"1830","tueStart":"0930","tueClose":"1830","wedStart":"0930","wedClose":"1830","thuStart":"0930","thuClose":"1830","friStart":"0930","friClose":"2000","satStart":"0930","satClose":"1400"},{"name":"사라산부인과의원","city":"서울특별시","district":"서대문구","address":"신촌로35길 10, 지하1층 416,412호 (북아현동, e편한세상신촌4단지)","tel":"02-392-0030","category":"의원","hpid":"A1119783","latitude":37.5586422818,"longitude":126.9559736848,"monStart":"0900","monClose":"1900","tueStart":"0900","tueClose":"1900","wedStart":"0900","wedClose":"1900","thuStart":"0900","thuClose":"1400","friStart":"0900","friClose":"1900","satStart":"0900","satClose":"1400"},{"name":"사랑마을정신건강의학과의원","city":"서울특별시","district":"서대문구","address":"모래내로 217 (남가좌동, 우일빌딩)","tel":"02-307-9736","category":"의원","hpid":"A1106155","latitude":37.574007438384555,"longitude":126.92339432730387,"monStart":"1000","monClose":"1700","tueStart":"1000","tueClose":"1700","thuStart":"1400","thuClose":"1700","friStart":"1000","friClose":"1700"},{"name":"사회복지법인서대문참사랑의원","city":"서울특별시","district":"서대문구","address":"거북골로 120 (남가좌동,가재울센트레빌아파트 상가3동 3-9)","tel":"02-375-6800","category":"의원","hpid":"A1106116","latitude":37.575494537868295,"longitude":126.91611607252138,"monStart":"0830","monClose":"1730","tueStart":"0830","tueClose":"1730","wedStart":"0830","wedClose":"1730","thuStart":"0830","thuClose":"1730","friStart":"0830","friClose":"1730","satStart":"0830","satClose":"1300"},{"name":"사회복지법인어린이사랑의의원","city":"서울특별시","district":"서대문구","address":"연희로 26, 1층 (창천동)","tel":"02-332-3970","category":"의원","remarks":"동방사회복지관등록소아만 진료","hpid":"A1104792","latitude":37.560995808233194,"longitude":126.92710643018376,"monStart":"0900","monClose":"1800","tueStart":"0900","tueClose":"1800","wedStart":"0900","wedClose":"1800","thuStart":"0900","thuClose":"1800","friStart":"0900","friClose":"1800"},{"name":"사회복지법인참사랑복지의원","city":"서울특별시","district":"서대문구","address":"통일로36길 11 (홍제동)","tel":"02-732-6801","category":"의원","remarks":"가정의학과(소아진료 불가), 외과(봉합 불가)/물리치료실/임상병리실","hpid":"A1106545","latitude":37.5876612272,"longitude":126.9465274616,"monStart":"0830","monClose":"1730","tueStart":"0830","tueClose":"1730","wedStart":"0830","wedClose":"1730","thuStart":"0830","thuClose":"1730","friStart":"0830","friClose":"1730","satStart":"0830","satClose":"1300"},{"name":"삼성곽재활의학과의원","city":"서울특별시","district":"서대문구","address":"증가로 241 (북가좌동)","tel":"02-376-7556","category":"의원","remarks":"정형외과(수술불가). 단순봉합가능. 물리치료","hpid":"A1102988","latitude":37.58259191035234,"longitude":126.91272981268544,"monStart":"0900","monClose":"1800","tueStart":"0900","tueClose":"1800","wedStart":"0900","wedClose":"1800","thuStart":"0900","thuClose":"1800","friStart":"0900","friClose":"1800","satStart":"0900","satClose":"1230"},{"name":"삼성정형외과의원","city":"서울특별시","district":"서대문구","address":"수색로2길 2 (남가좌동)","tel":"02-309-7575","category":"의원","remarks":"X-ray/봉합","hpid":"A1104920","latitude":37.568917444674085,"longitude":126.91635436417191,"monStart":"0900","monClose":"1900","tueStart":"0900","tueClose":"1900","wedStart":"0900","wedClose":"1900","thuStart":"0900","thuClose":"1900","friStart":"0900","friClose":"1900","satStart":"0900","satClose":"1400","holStart":"0900","holClose":"1300"},{"name":"삼성제일외과의원","city":"서울특별시","district":"서대문구","address":"증가로 129 (남가좌동)","tel":"02-305-2627","category":"의원","remarks":"갑상선/유방/내시경(위)/X-ray","hpid":"A1104693","latitude":37.57726893573995,"longitude":126.92323702550367,"monStart":"0900","monClose":"1830","tueStart":"0900","tueClose":"1830","wedStart":"0900","wedClose":"1830","thuStart":"0900","thuClose":"1830","friStart":"0900","friClose":"1830","satStart":"0900","satClose":"1500"},{"name":"삼성창문외과의원","city":"서울특별시","district":"서대문구","address":"수색로 48","tel":"02-376-7275","category":"의원","remarks":"항문(전문)/내시경(대장)","hpid":"A1104661","latitude":37.57040730523004,"longitude":126.91364601883285,"monStart":"0930","monClose":"1800","tueStart":"0930","tueClose":"1800","wedStart":"0930","wedClose":"1800","thuStart":"0930","thuClose":"1800","friStart":"0930","friClose":"1800","satStart":"0930","satClose":"1500"},{"name":"삼성키즈소아청소년과의원","city":"서울특별시","district":"서대문구","address":"수색로 100, 103동 6,7-2호 (북가좌동, DMC래미안e편한세상 단지내 상가)","tel":"02-3151-0154","category":"의원","hpid":"A1116923","latitude":37.57310169215871,"longitude":126.91182713952077,"monStart":"0900","monClose":"1830","tueStart":"0900","tueClose":"1830","wedStart":"0900","wedClose":"1830","thuStart":"0900","thuClose":"1830","friStart":"0900","friClose":"1830","satStart":"0900","satClose":"1300","sunStart":"0900","sunClose":"1300","holStart":"0900","holClose":"1300"},{"name":"상아피부과의원","city":"서울특별시","district":"서대문구","address":"통일로 436 (홍제동)","tel":"02-722-5442","category":"의원","remarks":"일반진료/피부미용/화상/","hpid":"A1104611","latitude":37.58810766256642,"longitude":126.94553533145952,"monStart":"0900","monClose":"1800","tueStart":"0900","tueClose":"1800","wedStart":"0900","wedClose":"1800","thuStart":"0900","thuClose":"1800","friStart":"0900","friClose":"1800","satStart":"0900","satClose":"1500"},{"name":"새빛안과의원","city":"서울특별시","district":"서대문구","address":"신촌로 99, 8층,9층 (창천동)","tel":"02-393-4200","category":"의원","remarks":"일반진료/수술가능(시력교정,백내장)/","hpid":"A1104281","latitude":37.55568568371135,"longitude":126.93712975932485,"monStart":"0930","monClose":"1830","tueStart":"0930","tueClose":"1830","wedStart":"0930","wedClose":"1830","thuStart":"0930","thuClose":"1830","friStart":"0930","friClose":"2000","satStart":"0930","satClose":"1600"},{"name":"새천년연세의원","city":"서울특별시","district":"서대문구","address":"홍연길 87, 2층 (연희동)","tel":"02-333-7583","category":"의원","hpid":"A1100677","latitude":37.5768702171607,"longitude":126.9312297607749,"monStart":"0900","monClose":"1900","tueStart":"0900","tueClose":"1900","wedStart":"0900","wedClose":"1900","thuStart":"0900","thuClose":"1900","friStart":"0900","friClose":"1900","satStart":"0900","satClose":"1500","holStart":"0900","holClose":"1300"},{"name":"새하나의원","city":"서울특별시","district":"서대문구","address":"연희로 103, 3,4층 (연희동)","tel":"02-337-0507","category":"의원","remarks":"갑상선암전문 요양의원","hpid":"A1101257","latitude":37.5672329875,"longitude":126.9309081035,"monStart":"0900","monClose":"1800","tueStart":"0900","tueClose":"1800","wedStart":"0900","wedClose":"1800","thuStart":"0900","thuClose":"1800","friStart":"0900","friClose":"1800","satStart":"0900","satClose":"1300"},{"name":"생활마취통증의학과의원","city":"서울특별시","district":"서대문구","address":"수색로 48, 대화빌딩 3층 (남가좌동)","tel":"02-312-3108","category":"의원","hpid":"A1107099","latitude":37.570396697,"longitude":126.9135997846,"monStart":"0930","monClose":"1830","tueStart":"0930","tueClose":"1830","wedStart":"1400","wedClose":"2000","thuStart":"0930","thuClose":"1830","friStart":"0930","friClose":"1830","satStart":"0900","satClose":"1300"},{"name":"서강정형외과의원","city":"서울특별시","district":"서대문구","address":"가좌로 65, 1,2층 (홍은동, 서강주상복합아파트)","tel":"02-306-6119","category":"의원","hpid":"A1104855","latitude":37.57898437666768,"longitude":126.92909110022717,"monStart":"0900","monClose":"1800","tueStart":"0900","tueClose":"1800","wedStart":"0900","wedClose":"1800","thuStart":"0900","thuClose":"1800","friStart":"0900","friClose":"1800","satStart":"0900","satClose":"1300"},{"name":"서대문우태하피부과의원","city":"서울특별시","district":"서대문구","address":"응암로 64, 2,3층 (북가좌동)","tel":"02-376-9962","category":"의원","hpid":"A1118840","latitude":37.5787161212,"longitude":126.9106965622,"monStart":"0930","monClose":"1900","tueStart":"0930","tueClose":"2000","wedStart":"0930","wedClose":"1900","thuStart":"0930","thuClose":"1900","friStart":"0930","friClose":"2000","satStart":"0930","satClose":"1500"},{"name":"서대문하나이비인후과의원","city":"서울특별시","district":"서대문구","address":"통일로 131, 4층,5층 (충정로2가, 공화당빌딩)","tel":"02-364-9925","category":"의원","remarks":"이물제거/후두내시경/","hpid":"A1100809","latitude":37.56615265814362,"longitude":126.96586203139127,"monStart":"0900","monClose":"1830","tueStart":"0900","tueClose":"1830","wedStart":"0900","wedClose":"1830","thuStart":"0900","thuClose":"2000","friStart":"0900","friClose":"1830","satStart":"0900","satClose":"1330"},{"name":"서울가정의원","city":"서울특별시","district":"서대문구","address":"증가로20가길 89, 2층 (북가좌동, 양지빌딩)","tel":"02-376-1957","category":"의원","remarks":"수액처치가능(소아는불가)/신생아진료가능/이물질제거O/간단한봉합/간단한화상진료O","hpid":"A1103355","latitude":37.58244172912648,"longitude":126.91946849588663,"monStart":"0900","monClose":"1820","tueStart":"0900","tueClose":"1820","wedStart":"0900","wedClose":"1820","thuStart":"0900","thuClose":"1820","friStart":"0900","friClose":"1820","satStart":"0900","satClose":"1300"},{"name":"서울가정의학과의원","city":"서울특별시","district":"서대문구","address":"세검정로1길 93, 상가A동 207호 (홍은동, 벽산아파트)","tel":"02-395-6323","category":"의원","remarks":"수액처치/ 상처소독/ 이물제거(간단한)/ 소아(나이제한없음)/","hpid":"A1100492","latitude":37.59449029773728,"longitude":126.94554424716887,"monStart":"0900","monClose":"1900","tueStart":"0900","tueClose":"1900","wedStart":"0900","wedClose":"1900","thuStart":"1400","thuClose":"2000","friStart":"0900","friClose":"1900","satStart":"0900","satClose":"1400"},{"name":"서울삼성내과의원","city":"서울특별시","district":"서대문구","address":"충정로 70, 2층 (미근동)","tel":"02-365-1478","category":"의원","remarks":"수액처치/소아진료(만1세이상)/X-ray/혈액검사/내시경(위,대장)/복부초음파/심전도/인공신장실/","hpid":"A1103094","latitude":37.56477247529572,"longitude":126.96636068603809,"monStart":"0900","monClose":"1800","tueStart":"0900","tueClose":"1800","wedStart":"0900","wedClose":"1800","thuStart":"0900","thuClose":"1800","friStart":"0900","friClose":"1800","satStart":"0900","satClose":"1330"},{"name":"서울성모내과의원","city":"서울특별시","district":"서대문구","address":"연희로 85","tel":"02-3144-2278","category":"의원","remarks":"수액처치/소아진료(4세이상)/혈액검사","hpid":"A1100811","latitude":37.56598543064168,"longitude":126.92991411550476,"monStart":"0830","monClose":"1800","tueStart":"0830","tueClose":"1800","wedStart":"0830","wedClose":"1800","thuStart":"0830","thuClose":"1800","friStart":"0830","friClose":"1800","satStart":"0830","satClose":"1300"},{"name":"서울안과의원","city":"서울특별시","district":"서대문구","address":"통일로 464, 3층 (홍제동)","tel":"02-395-2275","category":"의원","remarks":"일반진료/수술가능(시력교정)/","hpid":"A1104338","latitude":37.58981126340018,"longitude":126.94327442527697,"monStart":"0930","monClose":"1730","tueStart":"0930","tueClose":"1730","wedStart":"0930","wedClose":"1730","thuStart":"0930","thuClose":"1730","friStart":"0930","friClose":"1730","satStart":"0930","satClose":"1300"},{"name":"서울연세의원","city":"서울특별시","district":"서대문구","address":"수색로 48, 3층 301호 (남가좌동)","tel":"02-303-3329","category":"의원","remarks":"신생아진료가능/수액O/X-RAY/위내시경/대장내시경","hpid":"A1102372","latitude":37.57018761587792,"longitude":126.91385002738659,"monStart":"0900","monClose":"1830","tueStart":"0900","tueClose":"1830","wedStart":"0900","wedClose":"1830","thuStart":"0900","thuClose":"1830","friStart":"0900","friClose":"1830","satStart":"0900","satClose":"1400"},{"name":"서울정형외과의원","city":"서울특별시","district":"서대문구","address":"성산로 315 (연희동)","tel":"02-334-3227","category":"의원","remarks":"X-ray/봉합/물리치료","hpid":"A1102148","latitude":37.56665648676026,"longitude":126.9252174280726,"monStart":"0900","monClose":"1800","tueStart":"0900","tueClose":"1800","wedStart":"0900","wedClose":"1800","thuStart":"0900","thuClose":"1800","friStart":"0900","friClose":"1800","satStart":"0900","satClose":"1300"},{"name":"서울플러스이비인후과의원","city":"서울특별시","district":"서대문구","address":"통일로 464, 4층 (홍제동)","tel":"02-396-7511","category":"의원","remarks":"이물제거/후두내시경/","hpid":"A1101326","latitude":37.590005889503075,"longitude":126.94327396422102,"monStart":"0900","monClose":"1830","tueStart":"0900","tueClose":"1830","wedStart":"0900","wedClose":"1300","thuStart":"0900","thuClose":"1830","friStart":"0900","friClose":"1830","satStart":"0900","satClose":"1600"},{"name":"성모정형외과의원","city":"서울특별시","district":"서대문구","address":"응암로 54, 2층 (북가좌동, 서부프라자빌딩)","tel":"02-309-1190","category":"의원","remarks":"X-ray/봉합/물리치료","hpid":"A1104092","latitude":37.57787605875148,"longitude":126.91025834199857,"monStart":"0900","monClose":"1830","tueStart":"0900","tueClose":"1830","wedStart":"0900","wedClose":"1830","thuStart":"1430","thuClose":"1830","friStart":"0900","friClose":"1830","satStart":"0830","satClose":"1300"},{"name":"성서의원","city":"서울특별시","district":"서대문구","address":"모래내로17길 80-10 (홍은동)","tel":"02-391-9595","category":"의원","remarks":"모든연령가능/응급환자 안받음/ 드레싱,봉합,이물질제거 가능/ 기초자료제공거부/진료시간 매우유동적","hpid":"A1105570","latitude":37.581802899441385,"longitude":126.93556810371965,"monStart":"0900","monClose":"1900","tueStart":"0900","tueClose":"1900","wedStart":"0900","wedClose":"1900","thuStart":"0900","thuClose":"1900","friStart":"0900","friClose":"1900","satStart":"0900","satClose":"1600"},{"name":"세상의기쁨마취통증의학과의원","city":"서울특별시","district":"서대문구","address":"신촌로35길 10, B426호 (북아현동, e편한세상신촌 4단지)","tel":"02-313-1315","category":"의원","hpid":"A1120138","latitude":37.5586422818,"longitude":126.9559736848,"monStart":"0900","monClose":"2000","tueStart":"0900","tueClose":"2000","wedStart":"0900","wedClose":"2000","thuStart":"0900","thuClose":"2000","friStart":"0900","friClose":"2000"},{"name":"세신내과의원","city":"서울특별시","district":"서대문구","address":"모래내로 460, 홍제그린빌라상가 1층 (홍제동)","tel":"02-733-0811","category":"의원","hpid":"A1106544","latitude":37.58541568782564,"longitude":126.9459448594512,"monStart":"0800","monClose":"1800","tueStart":"0800","tueClose":"1800","wedStart":"0800","wedClose":"1800","thuStart":"0800","thuClose":"1800","friStart":"0800","friClose":"1800","satStart":"0800","satClose":"1800","holStart":"0800","holClose":"1800"},{"name":"손동현내과의원","city":"서울특별시","district":"서대문구","address":"연희로 407, 1층 (홍은동, 백련빌딩)","tel":"02-391-7504","category":"의원","remarks":"수액처치/소아진료(신생아이상)//X-ray/혈액검사/심전도/내시경(위,대장)/초음파/","hpid":"A1104853","latitude":37.59141016555833,"longitude":126.94068677592928,"monStart":"0900","monClose":"1800","tueStart":"0900","tueClose":"1800","wedStart":"0900","wedClose":"1800","thuStart":"0900","thuClose":"1800","friStart":"0900","friClose":"1800","satStart":"0900","satClose":"1300"},{"name":"손이비인후과의원","city":"서울특별시","district":"서대문구","address":"수색로 100-98, 402동 14호 (북가좌동)","tel":"02-306-3535","category":"의원","hpid":"A1116407","latitude":37.57694249582943,"longitude":126.91051388418805,"monStart":"0900","monClose":"1900","tueStart":"0900","tueClose":"1900","wedStart":"0900","wedClose":"1900","thuStart":"0900","thuClose":"1900","friStart":"0900","friClose":"1900","satStart":"0900","satClose":"1500"},{"name":"송인국정형외과의원","city":"서울특별시","district":"서대문구","address":"응암로 62, 3층 (북가좌동)","tel":"02-307-8800","category":"의원","remarks":"X-ray/봉합/물리치료","hpid":"A1105354","latitude":37.57858598106561,"longitude":126.91062509149482,"monStart":"0900","monClose":"1900","tueStart":"0900","tueClose":"1900","wedStart":"0900","wedClose":"1900","thuStart":"0900","thuClose":"1900","friStart":"0900","friClose":"1900","satStart":"0900","satClose":"1600"},{"name":"수내과의원","city":"서울특별시","district":"서대문구","address":"거북골로 67, 3층 (남가좌동)","tel":"02-303-7505","category":"의원","remarks":"수액처치/소아진료(만5세이상)/혈액검사/X-ray/내시경(위,대장)/초음파/심전도/","hpid":"A1100413","latitude":37.577433353929315,"longitude":126.92117198903364,"monStart":"0900","monClose":"1900","tueStart":"0900","tueClose":"1900","wedStart":"0900","wedClose":"1900","thuStart":"0900","thuClose":"1900","friStart":"0900","friClose":"1900","satStart":"0900","satClose":"1600"},{"name":"수의원","city":"서울특별시","district":"서대문구","address":"신촌로 127, 4층 (창천동)","tel":"02-302-7675","category":"의원","remarks":"2014.04 주소지 변경 및 행복한가정의원 명칭변경","hpid":"A1101154","latitude":37.55646203696257,"longitude":126.9399946743183,"monStart":"1000","monClose":"1900","tueStart":"1000","tueClose":"1900","wedStart":"1000","wedClose":"1900","thuStart":"1000","thuClose":"1900","friStart":"1000","friClose":"1900","satStart":"1000","satClose":"1600"},{"name":"스마일영상의학과의원","city":"서울특별시","district":"서대문구","address":"통일로 451, 3층, 4층 (홍제동, 외환은행빌딩)","tel":"02-391-3912","category":"의원","remarks":"일반진료X/건강검진O","hpid":"A1102438","latitude":37.58873753968486,"longitude":126.94379122702694,"monStart":"0900","monClose":"1830","tueStart":"0900","tueClose":"1830","wedStart":"0900","wedClose":"1830","thuStart":"0900","thuClose":"1830","friStart":"0900","friClose":"1830","satStart":"0900","satClose":"1400"},{"name":"스타일의원","city":"서울특별시","district":"서대문구","address":"통일로 415, 1,지하1층 (홍제동)","tel":"02-3217-6500","category":"의원","hpid":"A1119051","latitude":37.5865078562,"longitude":126.9463063748,"monStart":"1000","monClose":"1900","tueStart":"1000","tueClose":"1900","wedStart":"1000","wedClose":"1900","thuStart":"1000","thuClose":"1900","friStart":"1000","friClose":"1900","satStart":"1000","satClose":"1600"},{"name":"신촌미의원","city":"서울특별시","district":"서대문구","address":"연세로 10-1, 12층, 8(일부)층 (창천동, 즐거운빌딩)","tel":"02-393-5541","category":"의원","hpid":"A1118733","latitude":37.55648937535412,"longitude":126.93712453647768,"monStart":"1100","monClose":"2000","tueStart":"1100","tueClose":"2100","wedStart":"1100","wedClose":"1800","thuStart":"1100","thuClose":"2000","friStart":"1100","friClose":"2100","satStart":"1000","satClose":"1600"},{"name":"신촌오라클피부과의원","city":"서울특별시","district":"서대문구","address":"신촌로 79","tel":"02-322-2009","category":"의원","hpid":"A1107114","latitude":37.555994745616154,"longitude":126.93520207583747,"monStart":"1000","monClose":"2000","tueStart":"1000","tueClose":"2000","wedStart":"1000","wedClose":"2000","thuStart":"1400","thuClose":"2000","friStart":"1000","friClose":"2100","satStart":"1000","satClose":"1700"},{"name":"신촌이비인후과의원","city":"서울특별시","district":"서대문구","address":"신촌로 93","tel":"02-324-1329","category":"의원","remarks":"이물제거","hpid":"A1105534","latitude":37.55567836710663,"longitude":126.93658759091727,"monStart":"0940","monClose":"1800","tueStart":"0940","tueClose":"1800","wedStart":"0940","wedClose":"1800","thuStart":"0940","thuClose":"1800","friStart":"0940","friClose":"1800","satStart":"0940","satClose":"1400"},{"name":"안세정신과의원","city":"서울특별시","district":"서대문구","address":"신촌로 93","tel":"02-336-0734","category":"의원","remarks":"상담위주/초등학생이상O","hpid":"A1101476","latitude":37.555692790409246,"longitude":126.93660115913895,"monStart":"0930","monClose":"1830","tueStart":"0930","tueClose":"1830","wedStart":"0930","wedClose":"1830","thuStart":"0930","thuClose":"1830","friStart":"0930","friClose":"1830","satStart":"0900","satClose":"1400"},{"name":"안희권내과의원","city":"서울특별시","district":"서대문구","address":"통일로 358 (홍제동, 안산빌딩)","tel":"02-738-5833","category":"의원","remarks":"수액처치/소아진료(만3세이상)/혈액검사/X-ray/위내시경/심전도/","hpid":"A1104994","latitude":37.5823255449569,"longitude":126.95067040347114,"monStart":"0830","monClose":"1830","tueStart":"0830","tueClose":"1830","wedStart":"0830","wedClose":"1830","thuStart":"0830","thuClose":"1830","friStart":"0830","friClose":"1830","satStart":"0830","satClose":"1500"},{"name":"애플산부인과의원","city":"서울특별시","district":"서대문구","address":"신촌로 99, 10층 (창천동)","tel":"02-393-3060","category":"의원","hpid":"A1117662","latitude":37.5556893069,"longitude":126.9371568973,"monStart":"1000","monClose":"2100","tueStart":"1000","tueClose":"2100","wedStart":"1000","wedClose":"2100","thuStart":"1000","thuClose":"2100","friStart":"1000","friClose":"2100","satStart":"1000","satClose":"1800","holStart":"1000","holClose":"1600"},{"name":"양난경의원","city":"서울특별시","district":"서대문구","address":"신촌로35길 10, 1층 118호 (북아현동, e편한세상신촌4단지)","tel":"02-393-4357","category":"의원","remarks":"수액처치가능/신생아진료가능/간단한화상처치O","hpid":"A1105015","latitude":37.5586422818,"longitude":126.9559736848,"monStart":"0900","monClose":"1900","tueStart":"0900","tueClose":"1900","wedStart":"0900","wedClose":"1900","thuStart":"0900","thuClose":"1900","friStart":"0900","friClose":"1900","satStart":"0900","satClose":"1600"},{"name":"엘림이비인후과의원","city":"서울특별시","district":"서대문구","address":"가재울미래로 2, 별동상가동 302호 (남가좌동, DMC파크뷰자이)","tel":"02-306-5075","category":"의원","hpid":"A1117717","latitude":37.575043834070776,"longitude":126.91616724119996,"monStart":"0900","monClose":"1900","tueStart":"0900","tueClose":"1900","wedStart":"0900","wedClose":"1900","thuStart":"0900","thuClose":"1900","friStart":"0900","friClose":"1900","satStart":"0900","satClose":"1400","holStart":"0900","holClose":"1300"},{"name":"연세365의원","city":"서울특별시","district":"서대문구","address":"통일로 397","tel":"02-733-1365","category":"의원","hpid":"A1102961","latitude":37.58516767060001,"longitude":126.9473987621,"monStart":"0800","monClose":"2100","tueStart":"0800","tueClose":"2000","wedStart":"0800","wedClose":"2100","thuStart":"0800","thuClose":"2000","friStart":"0800","friClose":"2100","satStart":"0800","satClose":"1800","sunStart":"0800","sunClose":"1800"},{"name":"연세가정의원","city":"서울특별시","district":"서대문구","address":"이화여대8길 62","tel":"02-392-6122","category":"의원","remarks":"일요일공휴일비정기적으로운영9:00~13:00(연락후방문)","hpid":"A1104565","latitude":37.55971779880678,"longitude":126.9499708845224,"monStart":"0830","monClose":"1930","tueStart":"0830","tueClose":"1930","wedStart":"0830","wedClose":"1930","thuStart":"0830","thuClose":"1930","friStart":"0830","friClose":"1930","satStart":"0830","satClose":"1600","holStart":"0900","holClose":"1300"},{"name":"연세고운가정의학과의원","city":"서울특별시","district":"서대문구","address":"독립문로14길 3, 2층 203,205호 (냉천동, 서대문센트레빌 단지내상가 )","tel":"02-365-5875","category":"의원","remarks":"이물질 제거 x/ 수액 O/신생아 O","hpid":"A1101206","latitude":37.56692649451988,"longitude":126.9639459253379,"monStart":"0900","monClose":"1900","tueStart":"0900","tueClose":"1900","wedStart":"0900","wedClose":"1900","thuStart":"0900","thuClose":"1900","friStart":"0900","friClose":"1900","satStart":"0900","satClose":"1500","sunStart":"0900","sunClose":"1300","holStart":"0900","holClose":"1300"},{"name":"연세드림내과의원","city":"서울특별시","district":"서대문구","address":"통일로 451, 10층 (홍제동)","tel":"02-395-7553","category":"의원","remarks":"혈액검사/내시경(위,대장)/심전도/","hpid":"A1104991","latitude":37.58873753968486,"longitude":126.94379122702694,"monStart":"0900","monClose":"1800","tueStart":"0900","tueClose":"1800","wedStart":"0900","wedClose":"1800","thuStart":"0900","thuClose":"1800","friStart":"0900","friClose":"1800","satStart":"0900","satClose":"1400"},{"name":"연세류내과의원","city":"서울특별시","district":"서대문구","address":"수색로2길 16-1, 1,2층 (남가좌동)","tel":"02-303-6318","category":"의원","hpid":"A1118122","latitude":37.56958771722726,"longitude":126.91625853104745,"monStart":"0900","monClose":"1800","tueStart":"0900","tueClose":"1800","wedStart":"0900","wedClose":"1800","thuStart":"0900","thuClose":"1800","friStart":"0900","friClose":"1800","satStart":"0900","satClose":"1400"},{"name":"연세리더스의원","city":"서울특별시","district":"서대문구","address":"통일로 440, 2층 (홍제동)","tel":"02-394-2007","category":"의원","hpid":"A1100950","latitude":37.58835613201678,"longitude":126.94508676600354,"monStart":"0800","monClose":"2200","tueStart":"0800","tueClose":"2200","wedStart":"0800","wedClose":"2200","thuStart":"0800","thuClose":"2200","friStart":"0800","friClose":"2200","satStart":"0900","satClose":"1800","sunStart":"0900","sunClose":"1800","holStart":"0900","holClose":"1800"},{"name":"연세문이비인후과의원","city":"서울특별시","district":"서대문구","address":"북아현로 4, 2층 (북아현동)","tel":"02-364-2323","category":"의원","remarks":"이물제거/후두내시경","hpid":"A1103452","latitude":37.557809927292986,"longitude":126.95643595704324,"monStart":"0900","monClose":"1830","tueStart":"0900","tueClose":"1830","wedStart":"0900","wedClose":"1830","thuStart":"0900","thuClose":"1830","friStart":"0900","friClose":"1830","satStart":"0900","satClose":"1530"},{"name":"연세박내과의원","city":"서울특별시","district":"서대문구","address":"연희로 119","tel":"02-3143-7581","category":"의원","remarks":"수액처치/소아진료(36개월 이상)/혈액검사/X-ray/내시경(위,대장)/심전도/","hpid":"A1106800","latitude":37.56842650778712,"longitude":126.93192206978479,"monStart":"0830","monClose":"1830","tueStart":"0830","tueClose":"1830","wedStart":"0830","wedClose":"1830","thuStart":"0830","thuClose":"1830","friStart":"0830","friClose":"1830","satStart":"0830","satClose":"1530"},{"name":"연세밝은마음정신건강의학과의원","city":"서울특별시","district":"서대문구","address":"통일로 451, 5층 (홍제동)","tel":"02-3417-1122","category":"의원","remarks":"성인만O/상담위주","hpid":"A1106714","latitude":37.588669095613206,"longitude":126.94385013406523,"monStart":"0900","monClose":"1800","tueStart":"0900","tueClose":"1800","wedStart":"0900","wedClose":"1800","thuStart":"0900","thuClose":"1800","friStart":"0900","friClose":"1800","satStart":"0900","satClose":"1400"},{"name":"연세밝은맘정신과의원","city":"서울특별시","district":"서대문구","address":"성산로 488, 3층 (대신동)","tel":"02-393-7746","category":"의원","hpid":"A1101793","latitude":37.56084875994177,"longitude":126.9413357734255,"tueStart":"1000","tueClose":"1800","wedStart":"1000","wedClose":"1800","thuStart":"1000","thuClose":"1800","friStart":"1000","friClose":"1800","satStart":"1000","satClose":"1800"},{"name":"연세봄이비인후과의원","city":"서울특별시","district":"서대문구","address":"통일로 448, 4층 (홍제동)","tel":"02-6010-0306","category":"의원","hpid":"A1118907","latitude":37.588867601,"longitude":126.9444568652,"monStart":"0900","monClose":"1930","tueStart":"0900","tueClose":"1930","wedStart":"0900","wedClose":"1930","thuStart":"0900","thuClose":"1930","friStart":"0900","friClose":"1930","satStart":"0900","satClose":"1300"},{"name":"연세소아청소년과의원","city":"서울특별시","district":"서대문구","address":"연희로 97, 2층 (연희동, 신라빌딩)","tel":"02-325-0403","category":"의원","remarks":"/수액처치/상처소독/X-ray/성인진료(이비인후과)/소아안질환","hpid":"A1104660","latitude":37.5668038826,"longitude":126.9305145968,"monStart":"0930","monClose":"1800","tueStart":"0930","tueClose":"1800","wedStart":"0930","wedClose":"1800","thuStart":"0930","thuClose":"1800","friStart":"0930","friClose":"1800","satStart":"0930","satClose":"1230"},{"name":"연세속편한의원","city":"서울특별시","district":"서대문구","address":"수색로 56, 308호 (북가좌동, 성공타워1)","tel":"02-309-7585","category":"의원","hpid":"A1118554","latitude":37.57069837024456,"longitude":126.912504666481,"monStart":"0900","monClose":"1900","tueStart":"0900","tueClose":"1900","wedStart":"0900","wedClose":"1900","thuStart":"0900","thuClose":"1900","friStart":"0900","friClose":"1900","satStart":"0900","satClose":"1600"},{"name":"연세송도외과의원","city":"서울특별시","district":"서대문구","address":"통일로 433","tel":"02-3417-7175","category":"의원","remarks":"항문(전문)/하지정맥/내시경(대장.위)/봉합/화상/탈장","hpid":"A1101179","latitude":37.58767863523455,"longitude":126.94513744362786,"monStart":"0900","monClose":"1800","tueStart":"0900","tueClose":"1800","wedStart":"0900","wedClose":"1800","thuStart":"0900","thuClose":"1800","friStart":"0900","friClose":"1800","satStart":"0900","satClose":"1500"},{"name":"연세스타피부과의원","city":"서울특별시","district":"서대문구","address":"신촌로 73, 6층 (창천동)","tel":"02-332-0023","category":"의원","hpid":"A1103966","latitude":37.5563077611,"longitude":126.9345216723,"monStart":"1000","monClose":"2000","tueStart":"1000","tueClose":"2000","wedStart":"1000","wedClose":"2000","thuStart":"1000","thuClose":"2000","friStart":"1000","friClose":"2000","satStart":"1000","satClose":"1700"},{"name":"연세안과의원","city":"서울특별시","district":"서대문구","address":"통일로 402-1, 2,3층 (홍제동)","tel":"02-6227-9000","category":"의원","hpid":"A1119821","latitude":37.5856904453,"longitude":126.9478467419,"monStart":"0930","monClose":"1830","tueStart":"0930","tueClose":"1830","wedStart":"0930","wedClose":"1830","thuStart":"0930","thuClose":"1830","friStart":"0930","friClose":"1830","satStart":"0930","satClose":"1400"},{"name":"연세이비인후과의원","city":"서울특별시","district":"서대문구","address":"통일로 205-1, 2층 (영천동)","tel":"02-393-9752","category":"의원","remarks":"가시 등 이물질 제거/후두내시경: 0","hpid":"A1104341","latitude":37.57133721850009,"longitude":126.9608065335069,"monStart":"0900","monClose":"1900","tueStart":"0900","tueClose":"1900","wedStart":"0900","wedClose":"1900","thuStart":"0900","thuClose":"1900","friStart":"0900","friClose":"1900","satStart":"0900","satClose":"1400"},{"name":"연세자연미성형외과의원","city":"서울특별시","district":"서대문구","address":"신촌로 109, 502호 (창천동, 르메이에르타운)","tel":"02-365-4553","category":"의원","remarks":"일반진료/미용성형/봉합(중학생이상)/","hpid":"A1104975","latitude":37.5558302028,"longitude":126.9377996069,"monStart":"0930","monClose":"1830","tueStart":"0930","tueClose":"1830","wedStart":"0930","wedClose":"2000","thuStart":"0930","thuClose":"1830","friStart":"0930","friClose":"2000","satStart":"0930","satClose":"1600"},{"name":"연세장안과의원","city":"서울특별시","district":"서대문구","address":"수색로 56, 306호 (북가좌동, 성공타워1)","tel":"02-372-5677","category":"의원","hpid":"A1118120","latitude":37.57081410217132,"longitude":126.91270731340155,"monStart":"0900","monClose":"1900","tueStart":"0900","tueClose":"1900","wedStart":"0900","wedClose":"1900","thuStart":"0900","thuClose":"1900","friStart":"0900","friClose":"1900","satStart":"0900","satClose":"1500"},{"name":"연세재활의학과의원","city":"서울특별시","district":"서대문구","address":"거북골로 67, 2층 (남가좌동)","tel":"02-303-1500","category":"의원","remarks":"신생아O/물리치료O/봉합O/X-rayO","hpid":"A1101835","latitude":37.577433353929315,"longitude":126.92117198903364,"monStart":"0900","monClose":"1830","tueStart":"0900","tueClose":"1830","wedStart":"0900","wedClose":"1830","thuStart":"0900","thuClose":"1830","friStart":"0900","friClose":"1830","satStart":"0900","satClose":"1400"},{"name":"연세조이의원","city":"서울특별시","district":"서대문구","address":"통일로 135, 201호 (충정로2가, 충정빌딩)","tel":"02-2135-9191","category":"의원","hpid":"A1118734","latitude":37.5664264436694,"longitude":126.96545895018421,"monStart":"0900","monClose":"1900","tueStart":"0900","tueClose":"1900","wedStart":"0900","wedClose":"1900","thuStart":"0900","thuClose":"1900","friStart":"0900","friClose":"1900","satStart":"0900","satClose":"1300"},{"name":"연세탑의원","city":"서울특별시","district":"서대문구","address":"북아현로 4","tel":"02-312-7416","category":"의원","hpid":"A1101837","latitude":37.55782116163289,"longitude":126.95644585947178,"monStart":"0930","monClose":"1830","tueStart":"0930","tueClose":"1830","wedStart":"0930","wedClose":"1830","thuStart":"0930","thuClose":"1830","friStart":"0930","friClose":"1830","satStart":"0930","satClose":"1400"},{"name":"연세희망내과의원","city":"서울특별시","district":"서대문구","address":"수색로 40","tel":"02-376-0875","category":"의원","remarks":"수액처치/소아(12개월이상)/X-ray/혈액검사/심전도/내시경(위)/초음파/인공신장실-월~토:7~15시","hpid":"A1102398","latitude":37.56990324266354,"longitude":126.91430766555212,"monStart":"0830","monClose":"1830","tueStart":"0830","tueClose":"1830","wedStart":"0830","wedClose":"1830","thuStart":"0830","thuClose":"1830","friStart":"0830","friClose":"1830","satStart":"0830","satClose":"1500"},{"name":"연우내과의원","city":"서울특별시","district":"서대문구","address":"거북골로14길 32","tel":"02-306-2467","category":"의원","remarks":"수액처치(영양제만)/혈액검사/X-ray/위내시경(수면불가)/심전도/","hpid":"A1101571","latitude":37.575561224212585,"longitude":126.9140112686569,"monStart":"0900","monClose":"1800","tueStart":"0900","tueClose":"1800","wedStart":"0900","wedClose":"1800","thuStart":"0900","thuClose":"1800","friStart":"0900","friClose":"1800","satStart":"0900","satClose":"1300"},{"name":"연희성모의원","city":"서울특별시","district":"서대문구","address":"증가로 84, 104-108호 (연희동)","tel":"02-333-6738","category":"의원","remarks":"신생아O/소변.혈액검사O/드레싱O/수액O","hpid":"A1105112","latitude":37.57498646969949,"longitude":126.92711090756043,"monStart":"0900","monClose":"1800","tueStart":"0900","tueClose":"1800","wedStart":"0900","wedClose":"1800","thuStart":"0900","thuClose":"1800","friStart":"0900","friClose":"1800","satStart":"0900","satClose":"1300"},{"name":"연희이비인후과의원","city":"서울특별시","district":"서대문구","address":"연희로 117, 2층 (연희동)","tel":"02-333-8627","category":"의원","remarks":"신생아O/후두내시경:0,수액처치:0/간단한안과진료","hpid":"A1100266","latitude":37.56831471437838,"longitude":126.9318307782681,"monStart":"0930","monClose":"1830","tueStart":"0930","tueClose":"1830","wedStart":"0930","wedClose":"1830","thuStart":"0930","thuClose":"1830","friStart":"0930","friClose":"1830","satStart":"0930","satClose":"1600"},{"name":"연희제일의원","city":"서울특별시","district":"서대문구","address":"연희로 108, 1층 (연희동)","tel":"02-336-5361","category":"의원","remarks":"신생아ㅇ/초음파ㅇ/소변.혈액검사ㅇ/수액ㅇ/이물질제거ㅇ/간단봉합/위내시경","hpid":"A1101384","latitude":37.56743161607411,"longitude":126.9316187830982,"monStart":"0900","monClose":"1800","tueStart":"0900","tueClose":"1800","wedStart":"0900","wedClose":"1800","thuStart":"0900","thuClose":"1800","friStart":"0900","friClose":"1800","satStart":"0900","satClose":"1500"},{"name":"열린정형외과의원","city":"서울특별시","district":"서대문구","address":"증가로 145, 3층 (남가좌동)","tel":"02-303-8275","category":"의원","remarks":"X-ray/봉합/물리치료","hpid":"A1100703","latitude":37.5774551537,"longitude":126.9214300565,"monStart":"0900","monClose":"1900","tueStart":"0900","tueClose":"1900","wedStart":"0900","wedClose":"1900","thuStart":"0900","thuClose":"1900","friStart":"0900","friClose":"1900","satStart":"0900","satClose":"1600"},{"name":"예성의원","city":"서울특별시","district":"서대문구","address":"신촌로 175 (대현동)","tel":"02-364-2112","category":"의원","remarks":"미용성형만/성인만/5시30분까지만접수","hpid":"A1101475","latitude":37.556987250603335,"longitude":126.94543576017247,"monStart":"1000","monClose":"1700","tueStart":"1000","tueClose":"1700","wedStart":"1000","wedClose":"1700","thuStart":"1000","thuClose":"1700","friStart":"1000","friClose":"1700","satStart":"1000","satClose":"1300"},{"name":"예스피부과의원","city":"서울특별시","district":"서대문구","address":"통일로 440 (홍제동)","tel":"02-395-9513","category":"의원","hpid":"A1104898","latitude":37.58835972634082,"longitude":126.9450731973011,"monStart":"0930","monClose":"1830","tueStart":"0930","tueClose":"2030","wedStart":"0930","wedClose":"1830","thuStart":"0930","thuClose":"1830","friStart":"0930","friClose":"1830","satStart":"0930","satClose":"1600"},{"name":"오에스티의원","city":"서울특별시","district":"서대문구","address":"연세로 29, 4층 (창천동)","tel":"02-322-7570","category":"의원","hpid":"A1101268","latitude":37.55823530912218,"longitude":126.93676092191683,"monStart":"1100","monClose":"1900","tueStart":"1100","tueClose":"1900","wedStart":"1100","wedClose":"1900","friStart":"1100","friClose":"1900","satStart":"1300","satClose":"1700","sunStart":"1300","sunClose":"1700"},{"name":"오지현소아과의원","city":"서울특별시","district":"서대문구","address":"통일로 413, 6층 (홍제동)","tel":"02-3216-3395","category":"의원","remarks":"성인진료/소아안질환/","hpid":"A1106492","latitude":37.58620516661881,"longitude":126.9464107752501,"monStart":"0900","monClose":"1800","tueStart":"0900","tueClose":"1800","wedStart":"0900","wedClose":"1800","thuStart":"0900","thuClose":"1800","friStart":"0900","friClose":"1800","satStart":"0900","satClose":"1400"},{"name":"오흥근마취통증의학과의원","city":"서울특별시","district":"서대문구","address":"신촌로 25 (창천동)","tel":"02-337-1272","category":"의원","remarks":"통증클리닉/수액처치가능/소독은가능","hpid":"A1102793","latitude":37.55799521641908,"longitude":126.92963548879405,"monStart":"0900","monClose":"1800","tueStart":"0900","tueClose":"1800","wedStart":"0900","wedClose":"1800","thuStart":"0900","thuClose":"1800","friStart":"0900","friClose":"1800","satStart":"0900","satClose":"1500"},{"name":"요셉이비인후과의원","city":"서울특별시","district":"서대문구","address":"연희로 409 (홍은동)","tel":"02-3216-2059","category":"의원","remarks":"이물제거","hpid":"A1103187","latitude":37.59161925247315,"longitude":126.94079983808939,"monStart":"0900","monClose":"1830","tueStart":"0900","tueClose":"1830","wedStart":"0900","wedClose":"1830","thuStart":"0900","thuClose":"1830","friStart":"0900","friClose":"1830","satStart":"0900","satClose":"1500"},{"name":"우리들안과의원","city":"서울특별시","district":"서대문구","address":"신촌로 273","tel":"02-363-2220","category":"의원","remarks":"일반진료/수술가능(백내장)/","hpid":"A1104351","latitude":37.55762299221448,"longitude":126.95657273564032,"monStart":"0915","monClose":"1830","tueStart":"0915","tueClose":"1830","wedStart":"0915","wedClose":"1830","thuStart":"0915","thuClose":"1830","friStart":"0915","friClose":"1830","satStart":"0915","satClose":"1400"},{"name":"원상희외과의원","city":"서울특별시","district":"서대문구","address":"응암로 81 (북가좌동)","tel":"02-308-2301","category":"의원","remarks":"항문/갑상선/유방/봉합/화상","hpid":"A1104871","latitude":37.58043937565227,"longitude":126.91143264059802,"monStart":"0900","monClose":"1800","tueStart":"0900","tueClose":"1800","wedStart":"0900","wedClose":"1800","thuStart":"0900","thuClose":"1800","friStart":"0900","friClose":"1800","satStart":"0900","satClose":"1300"},{"name":"웰비뇨기과의원","city":"서울특별시","district":"서대문구","address":"통일로 413, 2층 (홍제동, 화인빌딩)","tel":"02-3217-8875","category":"의원","hpid":"A1104310","latitude":37.58620516661881,"longitude":126.9464107752501,"monStart":"0900","monClose":"1800","tueStart":"0900","tueClose":"1800","wedStart":"0900","wedClose":"1800","thuStart":"0900","thuClose":"1800","friStart":"0900","friClose":"1800","satStart":"0900","satClose":"1200"},{"name":"위대항의원","city":"서울특별시","district":"서대문구","address":"통일로 205-1, 3층,4층 (영천동)","tel":"02-364-2525","category":"의원","hpid":"A1119336","latitude":37.5713372185,"longitude":126.9608065335,"monStart":"0900","monClose":"1800","tueStart":"0900","tueClose":"1800","wedStart":"0900","wedClose":"1800","thuStart":"0900","thuClose":"1800","friStart":"0900","friClose":"1800","satStart":"0900","satClose":"1300"},{"name":"위풍환이비인후과의원","city":"서울특별시","district":"서대문구","address":"신촌로 23 (창천동)","tel":"02-324-2741","category":"의원","remarks":"후두내시경/","hpid":"A1100704","latitude":37.55804197370782,"longitude":126.92947699666098,"monStart":"0930","monClose":"1800","tueStart":"0930","tueClose":"1800","wedStart":"0930","wedClose":"1800","thuStart":"0930","thuClose":"1800","friStart":"0930","friClose":"1800","satStart":"0930","satClose":"1400"},{"name":"유앤아이의원","city":"서울특별시","district":"서대문구","address":"신촌로 99, 엘리트빌딩 7층 (창천동)","tel":"02-364-6020","category":"의원","hpid":"A1118799","latitude":37.55568930688561,"longitude":126.9371568973312,"monStart":"1000","monClose":"2100","tueStart":"1000","tueClose":"2100","wedStart":"1000","wedClose":"2100","thuStart":"1000","thuClose":"2100","friStart":"1000","friClose":"2100","satStart":"0900","satClose":"1700"},{"name":"유진미의원","city":"서울특별시","district":"서대문구","address":"수색로 56","tel":"02-3141-3456","category":"의원","hpid":"A1100804","latitude":37.57062653323165,"longitude":126.91282622681666,"monStart":"0930","monClose":"1830","tueStart":"0930","tueClose":"1930","wedStart":"0930","wedClose":"1830","thuStart":"0930","thuClose":"1830","friStart":"0930","friClose":"1930","satStart":"0930","satClose":"1600"},{"name":"유진연세의원","city":"서울특별시","district":"서대문구","address":"수색로 56","tel":"02-3141-8990","category":"의원","hpid":"A1118121","latitude":37.570615700977015,"longitude":126.91279907277645,"monStart":"0900","monClose":"2000","tueStart":"0900","tueClose":"2000","wedStart":"0900","wedClose":"2000","thuStart":"0900","thuClose":"2000","friStart":"0900","friClose":"2000","satStart":"0900","satClose":"1600"},{"name":"은성의원","city":"서울특별시","district":"서대문구","address":"명지대3길 1, 2층 (남가좌동)","tel":"02-6101-6303","category":"의원","hpid":"A1119477","latitude":37.5822066365,"longitude":126.9236304687,"monStart":"0930","monClose":"1830","tueStart":"0930","tueClose":"1830","wedStart":"0930","wedClose":"1830","thuStart":"0930","thuClose":"1830","friStart":"0930","friClose":"1830","satStart":"0930","satClose":"1330"},{"name":"은의원","city":"서울특별시","district":"서대문구","address":"수색로 32, 3층 (남가좌동)","tel":"02-392-7378","category":"의원","remarks":"피부과(화상치료가능)","hpid":"A1100359","latitude":37.569496802917016,"longitude":126.9151176314516,"monStart":"0930","monClose":"1800","tueStart":"0930","tueClose":"1800","wedStart":"0930","wedClose":"1800","thuStart":"0930","thuClose":"1800","friStart":"0930","friClose":"1800","satStart":"0930","satClose":"1300"},{"name":"은훼미리의원","city":"서울특별시","district":"서대문구","address":"세검정로 72, 2층 (홍제동)","tel":"02-6404-0251","category":"의원","hpid":"A1119880","latitude":37.5939509255,"longitude":126.9482621993,"monStart":"0900","monClose":"1800","tueStart":"0900","tueClose":"1800","wedStart":"0900","wedClose":"1800","thuStart":"0900","thuClose":"1800","friStart":"0900","friClose":"1800","satStart":"0900","satClose":"1300"},{"name":"의료법인사랑나눔의료재단에보스의원","city":"서울특별시","district":"서대문구","address":"서소문로 21, 지하1층,2층 (충정로3가)","tel":"02-363-2664","category":"의원","hpid":"A1117831","latitude":37.559895611861656,"longitude":126.96408569547579,"monStart":"0900","monClose":"1800","tueStart":"0900","tueClose":"1800","wedStart":"0900","wedClose":"1800","thuStart":"0900","thuClose":"1800","friStart":"0900","friClose":"1800"},{"name":"의료법인장안의료재단홈메디칼의원","city":"서울특별시","district":"서대문구","address":"홍은중앙로8길 17 (홍은동)","tel":"02-395-2351","category":"의원","remarks":"3세이상/X-ray/봉합/물리치료","hpid":"A1106798","latitude":37.599065050522654,"longitude":126.94849421694647,"monStart":"0900","monClose":"1830","tueStart":"0900","tueClose":"1830","wedStart":"0900","wedClose":"1830","thuStart":"0900","thuClose":"1830","friStart":"0900","friClose":"1830","satStart":"0900","satClose":"1400"},{"name":"이동수내과의원","city":"서울특별시","district":"서대문구","address":"응암로 54","tel":"02-302-9119","category":"의원","hpid":"A1104926","latitude":37.57794770215372,"longitude":126.9101322872155,"monStart":"0900","monClose":"1800","tueStart":"0900","tueClose":"1800","wedStart":"0900","wedClose":"1800","thuStart":"0900","thuClose":"1800","friStart":"0900","friClose":"1800","satStart":"0900","satClose":"1300"},{"name":"이명아산부인과의원","city":"서울특별시","district":"서대문구","address":"신촌역로 10, 2층 (대현동, 혜우빌딩)","tel":"02-364-8280","category":"의원","remarks":"수액/유방초음파/갑상선초음파/여의사","hpid":"A1105406","latitude":37.557634905027456,"longitude":126.94318080898307,"monStart":"1000","monClose":"1800","tueStart":"1000","tueClose":"1800","wedStart":"1000","wedClose":"1800","thuStart":"1000","thuClose":"1800","friStart":"1000","friClose":"1800","satStart":"1000","satClose":"1400"},{"name":"이소아청소년과의원","city":"서울특별시","district":"서대문구","address":"응암로 60, 4층 (북가좌동)","tel":"02-373-0947","category":"의원","remarks":"수액처치/상처소독/성인진료/소아안질환/","hpid":"A1100329","latitude":37.5784637197,"longitude":126.9105338439,"monStart":"0900","monClose":"1800","tueStart":"0900","tueClose":"1800","wedStart":"0900","wedClose":"1800","thuStart":"0900","thuClose":"1800","friStart":"0900","friClose":"1800","satStart":"0900","satClose":"1300"},{"name":"이승일마취통증의학과의원","city":"서울특별시","district":"서대문구","address":"통일로 451, 8층 (홍제동)","tel":"02-396-3900","category":"의원","remarks":"2013.09 개업","hpid":"A1105915","latitude":37.588669095613206,"longitude":126.94385013406523,"monStart":"0900","monClose":"1800","tueStart":"0900","tueClose":"1800","wedStart":"0900","wedClose":"1800","thuStart":"0900","thuClose":"1800","friStart":"0900","friClose":"1800","satStart":"0900","satClose":"1500"},{"name":"이에스의원","city":"서울특별시","district":"서대문구","address":"신촌로 67 (창천동, 거촌빌딩 6층)","tel":"02-334-1400","category":"의원","hpid":"A1116947","latitude":37.55650210935701,"longitude":126.9340416405347,"monStart":"1000","monClose":"2100","tueStart":"1000","tueClose":"1900","wedStart":"1400","wedClose":"2100","thuStart":"1000","thuClose":"1900","friStart":"1000","friClose":"2100","satStart":"1000","satClose":"1600"},{"name":"이용진창문외과의원","city":"서울특별시","district":"서대문구","address":"통일로 451 (홍제동)","tel":"02-3216-7020","category":"의원","remarks":"대장항문진료/하지정맥류","hpid":"A1100524","latitude":37.58873753968486,"longitude":126.94379122702694,"monStart":"0900","monClose":"1800","tueStart":"0900","tueClose":"1800","wedStart":"0900","wedClose":"1800","thuStart":"0900","thuClose":"1800","friStart":"0900","friClose":"1800","satStart":"0900","satClose":"1400"},{"name":"이은학내과의원","city":"서울특별시","district":"서대문구","address":"북아현로 2","tel":"02-362-8275","category":"의원","remarks":"수액처치/소아진료(초등학생)/혈액검사/x-ray/위내시경/심전도/초음파(복부)/","hpid":"A1104951","latitude":37.557738261937864,"longitude":126.95642327422296,"monStart":"0900","monClose":"1800","tueStart":"0900","tueClose":"1800","wedStart":"0900","wedClose":"1800","thuStart":"0900","thuClose":"1800","friStart":"0900","friClose":"1800","satStart":"0900","satClose":"1330"},{"name":"이정근안과의원","city":"서울특별시","district":"서대문구","address":"통일로 448 (홍제동)","tel":"02-394-3309","category":"의원","remarks":"일반진료/수술가능(시력교정)/","hpid":"A1105643","latitude":37.58886760101128,"longitude":126.9444568651997,"monStart":"0900","monClose":"1800","tueStart":"0900","tueClose":"1800","wedStart":"1400","wedClose":"1800","thuStart":"0900","thuClose":"1800","friStart":"0900","friClose":"1800","satStart":"0900","satClose":"1300"},{"name":"이종경내과의원","city":"서울특별시","district":"서대문구","address":"통일로 464, 홍제빌딩 3층 (홍제동)","tel":"02-394-3946","category":"의원","remarks":"수액처치/혈액검사/x-ray/내시경(위,대장)/심전도/초음파(복부,갑상선)/","hpid":"A1104174","latitude":37.58999867939079,"longitude":126.9432694406675,"monStart":"0900","monClose":"1800","tueStart":"0900","tueClose":"1800","wedStart":"0900","wedClose":"1300","thuStart":"0900","thuClose":"1800","friStart":"0900","friClose":"1800","satStart":"0900","satClose":"1300"},{"name":"이충원소아청소년과의원","city":"서울특별시","district":"서대문구","address":"신촌로35길 10","tel":"02-312-7588","category":"의원","hpid":"A1119440","latitude":37.55785699959565,"longitude":126.95592070088634,"monStart":"0900","monClose":"1830","tueStart":"0900","tueClose":"1830","wedStart":"0900","wedClose":"1830","thuStart":"0900","thuClose":"1830","friStart":"0900","friClose":"1830","satStart":"0900","satClose":"1400"},{"name":"임계순내과의원","city":"서울특별시","district":"서대문구","address":"응암로 100","tel":"02-303-8220","category":"의원","remarks":"수액처치/소아진료(신생아부터)/혈액검사/x-ray(흉부만)/위내시경/심전도/","hpid":"A1105222","latitude":37.581546521846455,"longitude":126.9128630881828,"monStart":"0900","monClose":"1800","tueStart":"0900","tueClose":"1800","wedStart":"0900","wedClose":"1800","thuStart":"0900","thuClose":"1800","friStart":"0900","friClose":"1800","satStart":"0900","satClose":"1500"},{"name":"임외과가정의학과의원","city":"서울특별시","district":"서대문구","address":"세검정로 66 (홍제동)","tel":"02-379-3178","category":"의원","remarks":"항문/봉합/화상(간단)/","hpid":"A1106129","latitude":37.593543551915204,"longitude":126.94797713921812,"monStart":"0900","monClose":"1700","tueStart":"0900","tueClose":"1700","wedStart":"0900","wedClose":"1700","thuStart":"0900","thuClose":"1700","friStart":"0900","friClose":"1700","satStart":"0900","satClose":"1200"},{"name":"자인신경외과의원","city":"서울특별시","district":"서대문구","address":"통일로 464, 5층 (홍제동)","tel":"02-391-2100","category":"의원","hpid":"A1118498","latitude":37.58996261901124,"longitude":126.94321962805891,"monStart":"0900","monClose":"1900","tueStart":"0900","tueClose":"1900","wedStart":"0900","wedClose":"1900","thuStart":"0900","thuClose":"1900","friStart":"0900","friClose":"1900","satStart":"0900","satClose":"1400"},{"name":"장안과의원","city":"서울특별시","district":"서대문구","address":"수색로 38 (남가좌동)","tel":"02-302-5677","category":"의원","remarks":"일반진료/수술가능(백내장)/","hpid":"A1100855","latitude":37.56980988824741,"longitude":126.9144788560418,"monStart":"0930","monClose":"1800","tueStart":"0930","tueClose":"1800","wedStart":"0930","wedClose":"1800","thuStart":"0930","thuClose":"1800","friStart":"0930","friClose":"1800","satStart":"0930","satClose":"1200"},{"name":"장진호내과의원","city":"서울특별시","district":"서대문구","address":"홍은중앙로 73, 2층 (홍은동)","tel":"02-391-6336","category":"의원","remarks":"수액처치/소아진료(신생아진료가능)/혈액검사/위내시경/심전도/","hpid":"A1105715","latitude":37.597835170306425,"longitude":126.94640241467256,"monStart":"0900","monClose":"1830","tueStart":"0900","tueClose":"1830","wedStart":"0900","wedClose":"1830","thuStart":"0900","thuClose":"1830","friStart":"0900","friClose":"1830","satStart":"0900","satClose":"1500"},{"name":"정소아청소년과의원","city":"서울특별시","district":"서대문구","address":"가재울미래로 2","tel":"02-305-0067","category":"의원","hpid":"A1118118","latitude":37.57187105490717,"longitude":126.91438234527988,"monStart":"0930","monClose":"1800","tueStart":"0930","tueClose":"1800","wedStart":"0930","wedClose":"1800","thuStart":"0930","thuClose":"1800","friStart":"0930","friClose":"1800","satStart":"0900","satClose":"1300"},{"name":"정정형외과의원","city":"서울특별시","district":"서대문구","address":"통일로 433, 5층 (홍제동)","tel":"02-396-9475","category":"의원","hpid":"A1100696","latitude":37.58760295033567,"longitude":126.94513297186916,"monStart":"0900","monClose":"1900","tueStart":"0900","tueClose":"1900","wedStart":"0900","wedClose":"1900","thuStart":"0900","thuClose":"1900","friStart":"0900","friClose":"1900","satStart":"0900","satClose":"1400"},{"name":"좋은정신건강의학과의원","city":"서울특별시","district":"서대문구","address":"수색로 40, 3층 (남가좌동)","tel":"02-302-7711","category":"의원","hpid":"A1107159","latitude":37.5700044046,"longitude":126.9143427992,"monStart":"1030","monClose":"2030","tueStart":"1030","tueClose":"2030","wedStart":"1030","wedClose":"2030","thuStart":"1030","thuClose":"2030","friStart":"1030","friClose":"2030","satStart":"1030","satClose":"1700","sunStart":"1400","sunClose":"1700","holStart":"1400","holClose":"1700"},{"name":"주이비인후과의원","city":"서울특별시","district":"서대문구","address":"수색로 26, 2층 (남가좌동)","tel":"02-375-5075","category":"의원","hpid":"A1102876","latitude":37.56921254175105,"longitude":126.9157563897199,"monStart":"0900","monClose":"1800","tueStart":"0900","tueClose":"1800","wedStart":"0900","wedClose":"1800","thuStart":"0900","thuClose":"1800","friStart":"0900","friClose":"1800","satStart":"0900","satClose":"1400"},{"name":"중앙내과의원","city":"서울특별시","district":"서대문구","address":"통일로 468, (홍제동)","tel":"02-394-5555","category":"의원","remarks":"수액처치/소아진료(10세이상)/혈액검사/X-ray(흉부촬영만)/위내시경/초음파/심전도/","hpid":"A1105349","latitude":37.590286811155025,"longitude":126.9428842533051,"monStart":"0900","monClose":"1800","tueStart":"0900","tueClose":"1800","wedStart":"0900","wedClose":"1800","thuStart":"0900","thuClose":"1200","friStart":"0900","friClose":"1800","satStart":"0900","satClose":"1200"},{"name":"차앤박피부과의원","city":"서울특별시","district":"서대문구","address":"신촌로 99, 6층 (창천동, 엘리트빌딩)","tel":"02-3147-0300","category":"의원","hpid":"A1107173","latitude":37.55568930688561,"longitude":126.9371568973312,"monStart":"1030","monClose":"2000","tueStart":"1030","tueClose":"2000","wedStart":"1030","wedClose":"2000","thuStart":"1030","thuClose":"2000","friStart":"1030","friClose":"2000","satStart":"1000","satClose":"1700"},{"name":"참다나의원","city":"서울특별시","district":"서대문구","address":"연희로 139-6, 2,3,4층 (연희동)","tel":"02-337-3588","category":"의원","remarks":"항암치료 및 방사선치료 중인 암환자 중심 입원치료 병원","hpid":"A1100812","latitude":37.570236326451486,"longitude":126.93302888080964,"monStart":"1000","monClose":"1700","tueStart":"1000","tueClose":"1700","wedStart":"1000","wedClose":"1700","thuStart":"1000","thuClose":"1700","friStart":"1000","friClose":"1700"},{"name":"참빛안과의원","city":"서울특별시","district":"서대문구","address":"수색로 48","tel":"02-303-4686","category":"의원","remarks":"일반진료/수술가능(백내장)/","hpid":"A1102646","latitude":37.570400077111366,"longitude":126.9136188605179,"monStart":"0900","monClose":"1830","tueStart":"0900","tueClose":"1830","wedStart":"0900","wedClose":"1830","thuStart":"0900","thuClose":"1830","friStart":"0900","friClose":"1830","satStart":"0900","satClose":"1500"},{"name":"참빛외과의원","city":"서울특별시","district":"서대문구","address":"신촌로 243-1 (북아현동)","tel":"02-364-7686","category":"의원","hpid":"A1103015","latitude":37.557459072280444,"longitude":126.95311328177975,"monStart":"0900","monClose":"1800","tueStart":"0900","tueClose":"1800","wedStart":"0900","wedClose":"1800","thuStart":"0900","thuClose":"1800","friStart":"0900","friClose":"1800","satStart":"0900","satClose":"1400"},{"name":"참조은내과의원","city":"서울특별시","district":"서대문구","address":"북아현로 52 (북아현동)","tel":"02-313-3464","category":"의원","remarks":"수액처치/소아진료(신생아부터)/혈액검사/심전도/초음파(갑상선 등)/X-ray/위내시경/","hpid":"A1104607","latitude":37.56198317120396,"longitude":126.95596721228657,"monStart":"0900","monClose":"1830","tueStart":"0900","tueClose":"1830","wedStart":"0900","wedClose":"1830","thuStart":"0900","thuClose":"1830","friStart":"0900","friClose":"1830","satStart":"0900","satClose":"1400"},{"name":"채내과의원","city":"서울특별시","district":"서대문구","address":"세검정로 32, 지1,1,2,5층 (홍제동)","tel":"02-391-6703","category":"의원","remarks":"수액처치/소아진료(만1세부터)/혈액검사/심전도/초음파/X-ray/내시경(위,대장)/유방검사/물리치료실/피부과진료/","hpid":"A1105274","latitude":37.59153121815173,"longitude":126.9450708665762,"monStart":"0900","monClose":"1800","tueStart":"0900","tueClose":"1800","wedStart":"0900","wedClose":"1800","thuStart":"0900","thuClose":"1800","friStart":"0900","friClose":"1800","satStart":"0900","satClose":"1400"},{"name":"채우석이비인후과의원","city":"서울특별시","district":"서대문구","address":"세검정로 72 (홍제동)","tel":"02-396-4742","category":"의원","remarks":"전연령/이물제거/후두내시경","hpid":"A1105195","latitude":37.593875243076106,"longitude":126.94827133099224,"monStart":"0930","monClose":"1800","tueStart":"0930","tueClose":"1800","wedStart":"0930","wedClose":"1800","thuStart":"0930","thuClose":"1800","friStart":"0930","friClose":"1800","satStart":"0930","satClose":"1300"},{"name":"최아란산부인과의원","city":"서울특별시","district":"서대문구","address":"거북골로 120","tel":"02-308-1781","category":"의원","remarks":"수액","hpid":"A1102783","latitude":37.57546144158157,"longitude":126.91554641386045,"monStart":"1030","monClose":"1800","tueStart":"1030","tueClose":"1800","wedStart":"1030","wedClose":"1800","thuStart":"1030","thuClose":"1300","friStart":"1030","friClose":"1800","satStart":"1030","satClose":"1400"},{"name":"최안과의원","city":"서울특별시","district":"서대문구","address":"통일로 433","tel":"02-379-3787","category":"의원","remarks":"일반진료/","hpid":"A1101153","latitude":37.5876317775272,"longitude":126.94512389243377,"monStart":"0930","monClose":"1800","tueStart":"0930","tueClose":"1800","wedStart":"0930","wedClose":"1800","thuStart":"0930","thuClose":"1300","friStart":"0930","friClose":"1800","satStart":"0930","satClose":"1400"},{"name":"최충신정형외과의원","city":"서울특별시","district":"서대문구","address":"통일로 187, 2,3층 (영천동)","tel":"02-738-9981","category":"의원","hpid":"A1116404","latitude":37.5701375086,"longitude":126.9620794804,"monStart":"0900","monClose":"1800","tueStart":"0900","tueClose":"1800","wedStart":"0900","wedClose":"1800","thuStart":"0900","thuClose":"1800","friStart":"0900","friClose":"1800"},{"name":"타임의원","city":"서울특별시","district":"서대문구","address":"신촌로 109, 405호 (창천동)","tel":"02-3147-0005","category":"의원","hpid":"A1102394","latitude":37.55594937618579,"longitude":126.93789563778137,"monStart":"1030","monClose":"2100","tueStart":"1030","tueClose":"2000","wedStart":"1030","wedClose":"1900","thuStart":"1030","thuClose":"2000","friStart":"1030","friClose":"2100","satStart":"1000","satClose":"1600"},{"name":"편한내과의원","city":"서울특별시","district":"서대문구","address":"통일로 450, 2층 (홍제동)","tel":"02-3417-0005","category":"의원","hpid":"A1119426","latitude":37.5889684353,"longitude":126.9442937476,"monStart":"0830","monClose":"1800","tueStart":"0830","tueClose":"1800","wedStart":"0830","wedClose":"1800","thuStart":"0830","thuClose":"1800","friStart":"0830","friClose":"1800","satStart":"0830","satClose":"1400"},{"name":"포에버의원","city":"서울특별시","district":"서대문구","address":"통일로37길 3","tel":"1600-8349","category":"의원","hpid":"A1101241","latitude":37.58794149038049,"longitude":126.94465265690043,"monStart":"1000","monClose":"1900","tueStart":"1000","tueClose":"1900","wedStart":"1000","wedClose":"2100","friStart":"1000","friClose":"2100","satStart":"1000","satClose":"1500"},{"name":"하나미의원","city":"서울특별시","district":"서대문구","address":"거북골로 120, 상가1동 210호 (남가좌동, DMC센트레빌아파트)","tel":"02-303-8887","category":"의원","hpid":"A1118499","latitude":37.57530225833093,"longitude":126.91471342684315,"monStart":"0930","monClose":"1830","tueStart":"0930","tueClose":"1830","wedStart":"0930","wedClose":"1830","thuStart":"0930","thuClose":"1400","friStart":"0930","friClose":"1830","satStart":"0930","satClose":"1400"},{"name":"하나이비인후과의원","city":"서울특별시","district":"서대문구","address":"수색로 56, 4층 408호 (북가좌동, 성공타워)","tel":"02-373-0075","category":"의원","remarks":"진료접수는 마감 전 30분까지 오셔야 가능,토요일은 점심시간없이 운영","hpid":"A1117895","latitude":37.57071286791519,"longitude":126.91261331690707,"monStart":"0900","monClose":"2000","tueStart":"0900","tueClose":"2000","wedStart":"0900","wedClose":"2000","thuStart":"0900","thuClose":"2000","friStart":"0900","friClose":"2000","satStart":"0900","satClose":"1600"},{"name":"하얀나라피부과의원","city":"서울특별시","district":"서대문구","address":"통일로 131, 7층 (충정로2가, 공화당빌딩)","tel":"02-364-7582","category":"의원","hpid":"A1101167","latitude":37.56615265814362,"longitude":126.96586203139127,"monStart":"0930","monClose":"1830","tueStart":"0930","tueClose":"2030","wedStart":"0930","wedClose":"1830","thuStart":"0930","thuClose":"2030","friStart":"0930","friClose":"1830","satStart":"0930","satClose":"1330"},{"name":"학교앞작은의원","city":"서울특별시","district":"서대문구","address":"신촌로 177 (대현동)","tel":"02-313-3105","category":"의원","remarks":"신생아가능/수액O/요로결석/화상처치/간단한이물제거O","hpid":"A1103981","latitude":37.5570449964,"longitude":126.9456031976,"monStart":"0900","monClose":"1900","tueStart":"0900","tueClose":"1900","wedStart":"0900","wedClose":"1900","thuStart":"0900","thuClose":"1900","friStart":"0900","friClose":"1900","satStart":"0900","satClose":"1500"},{"name":"한대석내과의원","city":"서울특별시","district":"서대문구","address":"신촌로 183, 3,4층 (대현동, 유인빌딩)","tel":"02-312-7400","category":"의원","remarks":"수액처치가능/X-RAY(흉부만)/혈액검사/심전도/인공신장실/","hpid":"A1103093","latitude":37.55706691210674,"longitude":126.9462505678116,"monStart":"0930","monClose":"1830","tueStart":"0930","tueClose":"1830","wedStart":"0930","wedClose":"1830","thuStart":"0930","thuClose":"1300","friStart":"0930","friClose":"1830","satStart":"0930","satClose":"1300"},{"name":"한양그린내과의원","city":"서울특별시","district":"서대문구","address":"통일로 413, 204호 (홍제동, 화인빌딩 )","tel":"02-379-3377","category":"의원","remarks":"/수액처치/소아진료(36개월이상)/X-ray/혈액검사/심전도/위내시경/","hpid":"A1102625","latitude":37.588478588398125,"longitude":126.94488322203642,"monStart":"0900","monClose":"1800","tueStart":"0900","tueClose":"1800","wedStart":"0900","wedClose":"1800","thuStart":"0900","thuClose":"1800","friStart":"0900","friClose":"1800","satStart":"0900","satClose":"1300"},{"name":"항미소외과의원","city":"서울특별시","district":"서대문구","address":"신촌로 59, 2층 (창천동)","tel":"02-336-7175","category":"의원","remarks":"항문(전문)/내시경(대장)/봉합/화상(간단)/","hpid":"A1103479","latitude":37.55671787821525,"longitude":126.93321302808565,"monStart":"0900","monClose":"1900","tueStart":"0900","tueClose":"1900","wedStart":"0900","wedClose":"1900","thuStart":"0900","thuClose":"1900","friStart":"0900","friClose":"1900","satStart":"0900","satClose":"1500"},{"name":"해들인의원","city":"서울특별시","district":"서대문구","address":"신촌로 107, 3층, 지하1층 (창천동, 세인빌딩)","tel":"02-313-1626","category":"의원","hpid":"A1107218","latitude":37.5556536455267,"longitude":126.93787218476791,"monStart":"1100","monClose":"2100","tueStart":"1400","tueClose":"2100","wedStart":"1100","wedClose":"1900","thuStart":"1400","thuClose":"2100","friStart":"1100","friClose":"2100","satStart":"1000","satClose":"1600"},{"name":"해솔내과의원","city":"서울특별시","district":"서대문구","address":"신촌로 141","tel":"02-363-5663","category":"의원","remarks":"수액처치/소아진료(만1세이상)/위내시경/심전도/초음파/2015.6.8~8.19 휴업\n","hpid":"A1101772","latitude":37.55687031136716,"longitude":126.94157529209119,"monStart":"0930","monClose":"1800","tueStart":"0930","tueClose":"1800","wedStart":"0930","wedClose":"1800","thuStart":"0930","thuClose":"1800","friStart":"0930","friClose":"1800","satStart":"0930","satClose":"1300"},{"name":"허은성형외과의원","city":"서울특별시","district":"서대문구","address":"이화여대길 7 (대현동)","tel":"02-313-6767","category":"의원","hpid":"A1105604","latitude":37.557239654982226,"longitude":126.94570719866303,"monStart":"1030","monClose":"1800","tueStart":"1030","tueClose":"1800","wedStart":"1030","wedClose":"1800","thuStart":"1030","thuClose":"1800","friStart":"1030","friClose":"1800","satStart":"1030","satClose":"1500"},{"name":"현대가정의학과의원","city":"서울특별시","district":"서대문구","address":"거북골로 154 (북가좌동)","tel":"02-375-7272","category":"의원","remarks":"수액처치(성인만가능)/상처처치가능/X-RAY/ 이물제거 불가/소아 6세이상<br>\n매월 2주일요일진료 09:00~13:00까지","hpid":"A1103590","latitude":37.575749391003185,"longitude":126.91344758799698,"monStart":"0900","monClose":"1830","tueStart":"0900","tueClose":"1830","wedStart":"0900","wedClose":"1830","thuStart":"0900","thuClose":"1830","friStart":"0900","friClose":"1830","satStart":"0900","satClose":"1500"},{"name":"현대중앙의원","city":"서울특별시","district":"서대문구","address":"증가로 121 (남가좌동)","tel":"02-372-6319","category":"의원","remarks":"3세이상진료/수액처치/상처봉합/드레싱가능/물리치료/X-RAY","hpid":"A1103864","latitude":37.57715051140471,"longitude":126.92402053378528,"monStart":"0900","monClose":"1800","tueStart":"0900","tueClose":"1800","wedStart":"0900","wedClose":"1800","thuStart":"0900","thuClose":"1800","friStart":"0900","friClose":"1800","satStart":"0900","satClose":"1400"},{"name":"홍영택산부인과의원","city":"서울특별시","district":"서대문구","address":"연희로 98 (연희동)","tel":"02-333-2129","category":"의원","hpid":"A1103847","latitude":37.56664559259626,"longitude":126.93100827412735,"monStart":"1000","monClose":"1800","tueStart":"1000","tueClose":"1800","wedStart":"1000","wedClose":"1800","thuStart":"1000","thuClose":"1800","friStart":"1000","friClose":"1800","satStart":"1000","satClose":"1230"},{"name":"홍제나라마취통증의학과의원","city":"서울특별시","district":"서대문구","address":"통일로 413, 3층 302호 (홍제동)","tel":"02-394-9008","category":"의원","hpid":"A1117407","latitude":37.5861799546,"longitude":126.9464379454,"monStart":"0900","monClose":"1800","tueStart":"0900","tueClose":"1800","wedStart":"0900","wedClose":"1800","thuStart":"0900","thuClose":"1800","friStart":"0900","friClose":"1800","satStart":"0900","satClose":"1300"},{"name":"홍제삼성의원","city":"서울특별시","district":"서대문구","address":"통일로 448, 5,6층 (홍제동)","tel":"02-396-0075","category":"의원","remarks":"X-ray/초음파/봉합/물리치료","hpid":"A1107188","latitude":37.58886760101128,"longitude":126.9444568651997,"monStart":"0900","monClose":"1900","tueStart":"0900","tueClose":"1900","wedStart":"0900","wedClose":"1900","thuStart":"0900","thuClose":"1900","friStart":"0900","friClose":"1900","satStart":"0900","satClose":"1400"},{"name":"홍피부과의원","city":"서울특별시","district":"서대문구","address":"수색로 38, 4층 (남가좌동)","tel":"02-304-0948","category":"의원","remarks":"피부미용/화상(간단한)/","hpid":"A1102721","latitude":37.56980988824742,"longitude":126.9144788560418,"monStart":"0930","monClose":"1800","tueStart":"0930","tueClose":"1800","wedStart":"0930","wedClose":"1800","thuStart":"0930","thuClose":"1800","friStart":"0930","friClose":"1800","satStart":"0930","satClose":"1300"},{"name":"황&신소아청소년과의원","city":"서울특별시","district":"서대문구","address":"거북골로 120","tel":"02-308-1675","category":"의원","hpid":"A1106922","latitude":37.575403844376815,"longitude":126.91563704215417,"monStart":"0900","monClose":"1830","tueStart":"0900","tueClose":"1830","wedStart":"0900","wedClose":"1830","thuStart":"0900","thuClose":"1300","friStart":"0900","friClose":"1830","satStart":"0900","satClose":"1300"},{"name":"황신소아과의원","city":"서울특별시","district":"서대문구","address":"모래내로15길 74","tel":"02-376-1675","category":"의원","hpid":"A1106405","latitude":37.5746996612939,"longitude":126.91870334841401,"monStart":"0900","monClose":"1830","tueStart":"0900","tueClose":"1830","wedStart":"0900","wedClose":"1300","thuStart":"0900","thuClose":"1830","friStart":"0900","friClose":"1830","satStart":"0900","satClose":"1300"},{"name":"휘소아청소년과의원","city":"서울특별시","district":"서대문구","address":"가재울미래로 2","tel":"02-6351-7575","category":"의원","hpid":"A1119687","latitude":37.5749969434863,"longitude":126.91611295776126,"monStart":"0830","monClose":"1830","tueStart":"0830","tueClose":"1830","wedStart":"0830","wedClose":"1830","thuStart":"0830","thuClose":"1830","friStart":"0830","friClose":"1830","satStart":"0900","satClose":"1400","holStart":"0900","holClose":"1300"}]